{"btsCode":"BBLMA12","btsName":"Daluchhari","btsLatitude":21.89518,"btsLongitude":92.19253,"btsAltitudeFt":55.77428},
{"btsCode":"BGRMP05","btsName":"Cahksri Bazar_GP","btsLatitude":22.639694,"btsLongitude":89.70175,"btsAltitudeFt":55.77428},
{"btsCode":"BGRMP06","btsName":"Gilatola Bazar_GP","btsLatitude":22.5945556,"btsLongitude":89.6957222,"btsAltitudeFt":55.77428},
{"btsCode":"BHSDR26","btsName":"Poranganj Bazar_BL","btsLatitude":22.725062,"btsLongitude":90.634891,"btsAltitudeFt":55.77428},
{"btsCode":"BBAKD01","btsName":"Alikadam_GP","btsLatitude":21.6477778,"btsLongitude":92.3078056,"btsAltitudeFt":55.77428},
{"btsCode":"BBAKD01","btsName":"Alikadam_GP","btsLatitude":21.6477778,"btsLongitude":92.3078056,"btsAltitudeFt":55.77428},
{"btsCode":"BBAKD01","btsName":"Alikadam_GP","btsLatitude":21.6477778,"btsLongitude":92.3078056,"btsAltitudeFt":55.77428},
{"btsCode":"BBAKD02","btsName":"Refarfari 41m","btsLatitude":21.6964,"btsLongitude":92.25185,"btsAltitudeFt":55.77428},
{"btsCode":"BBAKD02","btsName":"Refarfari 41m","btsLatitude":21.6964,"btsLongitude":92.25185,"btsAltitudeFt":55.77428},
{"btsCode":"BBAKD02","btsName":"Refarfari 41m","btsLatitude":21.6964,"btsLongitude":92.25185,"btsAltitudeFt":55.77428},
{"btsCode":"BBAKD03","btsName":"Puraba Palongpara","btsLatitude":21.652556,"btsLongitude":92.319861,"btsAltitudeFt":55.77428},
{"btsCode":"BBLMA07","btsName":"Ruposhipara","btsLatitude":21.744401,"btsLongitude":92.2563,"btsAltitudeFt":55.77428},
{"btsCode":"BBAKD03","btsName":"Puraba Palongpara","btsLatitude":21.652556,"btsLongitude":92.319861,"btsAltitudeFt":55.77428},
{"btsCode":"BBAKD03","btsName":"Puraba Palongpara","btsLatitude":21.652556,"btsLongitude":92.319861,"btsAltitudeFt":55.77428},
{"btsCode":"BBLMA01","btsName":"Lama_GP","btsLatitude":21.7773889,"btsLongitude":92.1948889,"btsAltitudeFt":55.77428},
{"btsCode":"BBLMA01","btsName":"Lama_GP","btsLatitude":21.7773889,"btsLongitude":92.1948889,"btsAltitudeFt":55.77428},
{"btsCode":"BBLMA01","btsName":"Lama_GP","btsLatitude":21.7773889,"btsLongitude":92.1948889,"btsAltitudeFt":55.77428},
{"btsCode":"BBLMA02","btsName":"Lainjhiri 41m","btsLatitude":21.7535278,"btsLongitude":92.2134444,"btsAltitudeFt":55.77428},
{"btsCode":"BBLMA02","btsName":"Lainjhiri 41m","btsLatitude":21.7535278,"btsLongitude":92.2134444,"btsAltitudeFt":55.77428},
{"btsCode":"BBLMA02","btsName":"Lainjhiri 41m","btsLatitude":21.7535278,"btsLongitude":92.2134444,"btsAltitudeFt":55.77428},
{"btsCode":"BBLMA03","btsName":"Yancha 48m","btsLatitude":21.724,"btsLongitude":92.1631,"btsAltitudeFt":55.77428},
{"btsCode":"BBLMA03","btsName":"Yancha 48m","btsLatitude":21.724,"btsLongitude":92.1631,"btsAltitudeFt":55.77428},
{"btsCode":"BBLMA03","btsName":"Yancha 48m","btsLatitude":21.724,"btsLongitude":92.1631,"btsAltitudeFt":55.77428},
{"btsCode":"BBLMA04","btsName":"Gojalia","btsLatitude":21.8524167,"btsLongitude":92.1796111,"btsAltitudeFt":55.77428},
{"btsCode":"BBLMA04","btsName":"Gojalia","btsLatitude":21.8524167,"btsLongitude":92.1796111,"btsAltitudeFt":55.77428},
{"btsCode":"BBLMA04","btsName":"Gojalia","btsLatitude":21.8524167,"btsLongitude":92.1796111,"btsAltitudeFt":55.77428},
{"btsCode":"BBLMA05","btsName":"Keajupara","btsLatitude":21.92775,"btsLongitude":92.194389,"btsAltitudeFt":55.77428},
{"btsCode":"BBLMA05","btsName":"Keajupara","btsLatitude":21.92775,"btsLongitude":92.194389,"btsAltitudeFt":55.77428},
{"btsCode":"BBLMA05","btsName":"Keajupara","btsLatitude":21.92775,"btsLongitude":92.194389,"btsAltitudeFt":55.77428},
{"btsCode":"BBLMA06","btsName":"Faithong","btsLatitude":21.813528,"btsLongitude":92.104833,"btsAltitudeFt":55.77428},
{"btsCode":"BBLMA06","btsName":"Faithong","btsLatitude":21.813528,"btsLongitude":92.104833,"btsAltitudeFt":55.77428},
{"btsCode":"BBLMA06","btsName":"Faithong","btsLatitude":21.813528,"btsLongitude":92.104833,"btsAltitudeFt":55.77428},
{"btsCode":"BBLMA07","btsName":"Ruposhipara","btsLatitude":21.744401,"btsLongitude":92.2563,"btsAltitudeFt":55.77428},
{"btsCode":"BBLMA07","btsName":"Ruposhipara","btsLatitude":21.744401,"btsLongitude":92.2563,"btsAltitudeFt":55.77428},
{"btsCode":"BBLMA09","btsName":"Quantam Foundation","btsLatitude":21.921973,"btsLongitude":92.216694,"btsAltitudeFt":55.77428},
{"btsCode":"BBLMA09","btsName":"Quantam Foundation","btsLatitude":21.921973,"btsLongitude":92.216694,"btsAltitudeFt":55.77428},
{"btsCode":"BBLMA10","btsName":"Tonka Boti","btsLatitude":21.990723,"btsLongitude":92.206333,"btsAltitudeFt":55.77428},
{"btsCode":"BBLMA11","btsName":"Fasyakhali","btsLatitude":21.68579,"btsLongitude":92.10381,"btsAltitudeFt":55.77428},
{"btsCode":"BBLMA11","btsName":"Fasyakhali","btsLatitude":21.68579,"btsLongitude":92.10381,"btsAltitudeFt":55.77428},
{"btsCode":"BBLMA12","btsName":"Daluchhari","btsLatitude":21.89518,"btsLongitude":92.19253,"btsAltitudeFt":55.77428},
{"btsCode":"BBNKC01","btsName":"Naikkhongchari","btsLatitude":21.4266389,"btsLongitude":92.1764167,"btsAltitudeFt":55.77428},
{"btsCode":"BBNKC01","btsName":"Naikkhongchari","btsLatitude":21.4266389,"btsLongitude":92.1764167,"btsAltitudeFt":55.77428},
{"btsCode":"BBNKC01","btsName":"Naikkhongchari","btsLatitude":21.4266389,"btsLongitude":92.1764167,"btsAltitudeFt":55.77428},
{"btsCode":"BBNKC02","btsName":"Baishari 41m","btsLatitude":21.511575,"btsLongitude":92.17446,"btsAltitudeFt":55.77428},
{"btsCode":"BBNKC02","btsName":"Baishari 41m","btsLatitude":21.511575,"btsLongitude":92.17446,"btsAltitudeFt":55.77428},
{"btsCode":"BBNKC02","btsName":"Baishari 41m","btsLatitude":21.511575,"btsLongitude":92.17446,"btsAltitudeFt":55.77428},
{"btsCode":"BBNKC05","btsName":"Narish bunia","btsLatitude":21.57749,"btsLongitude":92.17926,"btsAltitudeFt":55.77428},
{"btsCode":"BBNKC05","btsName":"Narish bunia","btsLatitude":21.57749,"btsLongitude":92.17926,"btsAltitudeFt":55.77428},
{"btsCode":"BBRMA01","btsName":"Ruma","btsLatitude":22.047556,"btsLongitude":92.396417,"btsAltitudeFt":55.77428},
{"btsCode":"BBRMA01","btsName":"Ruma","btsLatitude":22.047556,"btsLongitude":92.396417,"btsAltitudeFt":55.77428},
{"btsCode":"BBRMA01","btsName":"Ruma","btsLatitude":22.047556,"btsLongitude":92.396417,"btsAltitudeFt":55.77428},
{"btsCode":"BBRNC01","btsName":"Fire Service Road","btsLatitude":22.1943889,"btsLongitude":92.2231389,"btsAltitudeFt":55.77428},
{"btsCode":"BBRNC01","btsName":"Fire Service Road","btsLatitude":22.1943889,"btsLongitude":92.2231389,"btsAltitudeFt":55.77428},
{"btsCode":"BBRNC01","btsName":"Fire Service Road","btsLatitude":22.1943889,"btsLongitude":92.2231389,"btsAltitudeFt":55.77428},
{"btsCode":"BBRNC02","btsName":"New Gulshan","btsLatitude":22.1875833,"btsLongitude":92.2268333,"btsAltitudeFt":55.77428},
{"btsCode":"BBRNC02","btsName":"New Gulshan","btsLatitude":22.1875833,"btsLongitude":92.2268333,"btsAltitudeFt":55.77428},
{"btsCode":"BBRNC02","btsName":"New Gulshan","btsLatitude":22.1875833,"btsLongitude":92.2268333,"btsAltitudeFt":55.77428},
{"btsCode":"BBRNC03","btsName":"Nilachal","btsLatitude":22.1677222,"btsLongitude":92.2104444,"btsAltitudeFt":55.77428},
{"btsCode":"BBRNC03","btsName":"Nilachal","btsLatitude":22.1677222,"btsLongitude":92.2104444,"btsAltitudeFt":55.77428},
{"btsCode":"BBRNC03","btsName":"Nilachal","btsLatitude":22.1677222,"btsLongitude":92.2104444,"btsAltitudeFt":55.77428},
{"btsCode":"BBRNC04","btsName":"Chimbuk","btsLatitude":22.0585278,"btsLongitude":92.2715556,"btsAltitudeFt":55.77428},
{"btsCode":"BBRNC04","btsName":"Chimbuk","btsLatitude":22.0585278,"btsLongitude":92.2715556,"btsAltitudeFt":55.77428},
{"btsCode":"BBRNC04","btsName":"Chimbuk","btsLatitude":22.0585278,"btsLongitude":92.2715556,"btsAltitudeFt":55.77428},
{"btsCode":"BBRNC05","btsName":"Rowanchari","btsLatitude":22.1708333,"btsLongitude":92.3381944,"btsAltitudeFt":55.77428},
{"btsCode":"BBRNC05","btsName":"Rowanchari","btsLatitude":22.1708333,"btsLongitude":92.3381944,"btsAltitudeFt":55.77428},
{"btsCode":"BBRNC05","btsName":"Rowanchari","btsLatitude":22.1708333,"btsLongitude":92.3381944,"btsAltitudeFt":55.77428},
{"btsCode":"BBRNC06","btsName":"Bagmara 41m","btsLatitude":22.2409167,"btsLongitude":92.2884167,"btsAltitudeFt":55.77428},
{"btsCode":"BBRNC06","btsName":"Bagmara 41m","btsLatitude":22.2409167,"btsLongitude":92.2884167,"btsAltitudeFt":55.77428},
{"btsCode":"BBSDR01","btsName":"Army Para","btsLatitude":22.1919417,"btsLongitude":92.2158306,"btsAltitudeFt":55.77428},
{"btsCode":"BBSDR01","btsName":"Army Para","btsLatitude":22.1919417,"btsLongitude":92.2158306,"btsAltitudeFt":55.77428},
{"btsCode":"BBSDR01","btsName":"Army Para","btsLatitude":22.1919417,"btsLongitude":92.2158306,"btsAltitudeFt":55.77428},
{"btsCode":"BBSDR02","btsName":"Bandarban_BL","btsLatitude":22.1976111,"btsLongitude":92.219,"btsAltitudeFt":55.77428},
{"btsCode":"BBSDR02","btsName":"Bandarban_BL","btsLatitude":22.1976111,"btsLongitude":92.219,"btsAltitudeFt":55.77428},
{"btsCode":"BBSDR02","btsName":"Bandarban_BL","btsLatitude":22.1976111,"btsLongitude":92.219,"btsAltitudeFt":55.77428},
{"btsCode":"BBSDR03","btsName":"Balaghata","btsLatitude":22.214,"btsLongitude":92.2102778,"btsAltitudeFt":55.77428},
{"btsCode":"BBSDR03","btsName":"Balaghata","btsLatitude":22.214,"btsLongitude":92.2102778,"btsAltitudeFt":55.77428},
{"btsCode":"BBSDR03","btsName":"Balaghata","btsLatitude":22.214,"btsLongitude":92.2102778,"btsAltitudeFt":55.77428},
{"btsCode":"BBSDR04","btsName":"5No_Bazar_land","btsLatitude":22.3417222,"btsLongitude":92.1943889,"btsAltitudeFt":55.77428},
{"btsCode":"BBSDR04","btsName":"5No_Bazar_land","btsLatitude":22.3417222,"btsLongitude":92.1943889,"btsAltitudeFt":55.77428},
{"btsCode":"BBSDR04","btsName":"5No_Bazar_land","btsLatitude":22.3417222,"btsLongitude":92.1943889,"btsAltitudeFt":55.77428},
{"btsCode":"BBSDR05","btsName":"Khansamapara","btsLatitude":22.2060833,"btsLongitude":92.2664167,"btsAltitudeFt":55.77428},
{"btsCode":"BBSDR05","btsName":"Khansamapara","btsLatitude":22.2060833,"btsLongitude":92.2664167,"btsAltitudeFt":55.77428},
{"btsCode":"BBSDR06","btsName":"Dalupara","btsLatitude":22.256389,"btsLongitude":92.156056,"btsAltitudeFt":55.77428},
{"btsCode":"BBSDR06","btsName":"Dalupara","btsLatitude":22.256389,"btsLongitude":92.156056,"btsAltitudeFt":55.77428},
{"btsCode":"BBSDR06","btsName":"Dalupara","btsLatitude":22.256389,"btsLongitude":92.156056,"btsAltitudeFt":55.77428},
{"btsCode":"BBSDR07","btsName":"Reysa Bazar","btsLatitude":22.164583,"btsLongitude":92.176111,"btsAltitudeFt":55.77428},
{"btsCode":"BBSDR07","btsName":"Reysa Bazar","btsLatitude":22.164583,"btsLongitude":92.176111,"btsAltitudeFt":55.77428},
{"btsCode":"BBSDR09","btsName":"Mazerpara","btsLatitude":22.13819,"btsLongitude":92.17859,"btsAltitudeFt":55.77428},
{"btsCode":"BBSDR09","btsName":"Mazerpara","btsLatitude":22.13819,"btsLongitude":92.17859,"btsAltitudeFt":55.77428},
{"btsCode":"BBSDR09","btsName":"Mazerpara","btsLatitude":22.13819,"btsLongitude":92.17859,"btsAltitudeFt":55.77428},
{"btsCode":"BBTCI01","btsName":"Thanchi 48m","btsLatitude":21.81775,"btsLongitude":92.44375,"btsAltitudeFt":55.77428},
{"btsCode":"BBTCI01","btsName":"Thanchi 48m","btsLatitude":21.81775,"btsLongitude":92.44375,"btsAltitudeFt":55.77428},
{"btsCode":"BBTCI01","btsName":"Thanchi 48m","btsLatitude":21.81775,"btsLongitude":92.44375,"btsAltitudeFt":55.77428},
{"btsCode":"BBTCI02","btsName":"Nilgiri","btsLatitude":21.905333,"btsLongitude":92.323778,"btsAltitudeFt":55.77428},
{"btsCode":"BBTCI02","btsName":"Nilgiri","btsLatitude":21.905333,"btsLongitude":92.323778,"btsAltitudeFt":55.77428},
{"btsCode":"BBTCI02","btsName":"Nilgiri","btsLatitude":21.905333,"btsLongitude":92.323778,"btsAltitudeFt":55.77428},
{"btsCode":"BBTCI03","btsName":"Bolipara","btsLatitude":21.88557,"btsLongitude":92.39373,"btsAltitudeFt":55.77428},
{"btsCode":"BBTCI03","btsName":"Bolipara","btsLatitude":21.88557,"btsLongitude":92.39373,"btsAltitudeFt":55.77428},
{"btsCode":"BBTCI03","btsName":"Bolipara","btsLatitude":21.88557,"btsLongitude":92.39373,"btsAltitudeFt":55.77428},
{"btsCode":"BGCTL01","btsName":"Chitalmari 25m Land","btsLatitude":22.7961111,"btsLongitude":89.8718333,"btsAltitudeFt":55.77428},
{"btsCode":"BGCTL01","btsName":"Chitalmari 25m Land","btsLatitude":22.7961111,"btsLongitude":89.8718333,"btsAltitudeFt":55.77428},
{"btsCode":"BGCTL02","btsName":"Kalatala","btsLatitude":22.8511667,"btsLongitude":89.9070278,"btsAltitudeFt":55.77428},
{"btsCode":"BGCTL03","btsName":"Khaser hat 32m Land","btsLatitude":22.7593056,"btsLongitude":89.8921389,"btsAltitudeFt":55.77428},
{"btsCode":"BGCTL05","btsName":"Borguni Bazar_GP","btsLatitude":22.8833611,"btsLongitude":89.8456111,"btsAltitudeFt":55.77428},
{"btsCode":"BGCTL06","btsName":"Bakherganj_GP","btsLatitude":22.7524722,"btsLongitude":89.8401667,"btsAltitudeFt":55.77428},
{"btsCode":"BGCTL06","btsName":"Bakherganj_GP","btsLatitude":22.7524722,"btsLongitude":89.8401667,"btsAltitudeFt":55.77428},
{"btsCode":"BGCTL07","btsName":"Nalua Bazar_Reloc","btsLatitude":22.84171,"btsLongitude":89.84968,"btsAltitudeFt":55.77428},
{"btsCode":"BGFKR02","btsName":"Katakhali_Morh","btsLatitude":22.7384444,"btsLongitude":89.6390833,"btsAltitudeFt":55.77428},
{"btsCode":"BGFKR02","btsName":"Katakhali_Morh","btsLatitude":22.7384444,"btsLongitude":89.6390833,"btsAltitudeFt":55.77428},
{"btsCode":"BGFKR02","btsName":"Katakhali_Morh","btsLatitude":22.7384444,"btsLongitude":89.6390833,"btsAltitudeFt":55.77428},
{"btsCode":"BGFKR03","btsName":"Mansha Bazar","btsLatitude":22.79475,"btsLongitude":89.6745,"btsAltitudeFt":55.77428},
{"btsCode":"BGFKR03","btsName":"Mansha Bazar","btsLatitude":22.79475,"btsLongitude":89.6745,"btsAltitudeFt":55.77428},
{"btsCode":"BGFKR03","btsName":"Mansha Bazar","btsLatitude":22.79475,"btsLongitude":89.6745,"btsAltitudeFt":55.77428},
{"btsCode":"BGFKR04","btsName":"Tilok mor_GP","btsLatitude":22.7637778,"btsLongitude":89.6206083,"btsAltitudeFt":55.77428},
{"btsCode":"BGFKR05","btsName":"Baroipara_GP","btsLatitude":22.7565,"btsLongitude":89.7439444,"btsAltitudeFt":55.77428},
{"btsCode":"BGFKR05","btsName":"Baroipara_GP","btsLatitude":22.7565,"btsLongitude":89.7439444,"btsAltitudeFt":55.77428},
{"btsCode":"BGFKR08","btsName":"Barashia(Shingati)","btsLatitude":22.7426,"btsLongitude":89.7177,"btsAltitudeFt":55.77428},
{"btsCode":"BGFKR09","btsName":"Betaga bazar_GP","btsLatitude":22.7108889,"btsLongitude":89.6253611,"btsAltitudeFt":55.77428},
{"btsCode":"BGFKR09","btsName":"Betaga bazar_GP","btsLatitude":22.7108889,"btsLongitude":89.6253611,"btsAltitudeFt":55.77428},
{"btsCode":"CMBRR30","btsName":"Mugji_GP","btsLatitude":23.4057,"btsLongitude":91.0558,"btsAltitudeFt":55.77428},
{"btsCode":"BGFKR10","btsName":"Palerhat Bazar 32Land","btsLatitude":22.7345069,"btsLongitude":89.68025,"btsAltitudeFt":55.77428},
{"btsCode":"BGFKR10","btsName":"Palerhat Bazar 32Land","btsLatitude":22.7345069,"btsLongitude":89.68025,"btsAltitudeFt":55.77428},
{"btsCode":"BGFKR11","btsName":"Fakirhat Women College_GP","btsLatitude":22.7782778,"btsLongitude":89.7024167,"btsAltitudeFt":55.77428},
{"btsCode":"BGFKR11","btsName":"Fakirhat Women College_GP","btsLatitude":22.7782778,"btsLongitude":89.7024167,"btsAltitudeFt":55.77428},
{"btsCode":"BGFKR12","btsName":"Fakirhat_Reloc","btsLatitude":22.77402,"btsLongitude":89.71589,"btsAltitudeFt":55.77428},
{"btsCode":"BGFKR12","btsName":"Fakirhat_Reloc","btsLatitude":22.77402,"btsLongitude":89.71589,"btsAltitudeFt":55.77428},
{"btsCode":"BGFKR12","btsName":"Fakirhat_Reloc","btsLatitude":22.77402,"btsLongitude":89.71589,"btsAltitudeFt":55.77428},
{"btsCode":"BGFKR12","btsName":"Fakirhat_Reloc","btsLatitude":22.77402,"btsLongitude":89.71589,"btsAltitudeFt":55.77428},
{"btsCode":"BGFKR12","btsName":"Fakirhat_Reloc","btsLatitude":22.77402,"btsLongitude":89.71589,"btsAltitudeFt":55.77428},
{"btsCode":"BGFKR12","btsName":"Fakirhat_Reloc","btsLatitude":22.77402,"btsLongitude":89.71589,"btsAltitudeFt":55.77428},
{"btsCode":"BGKCH01","btsName":"Depara 42m","btsLatitude":22.7208667,"btsLongitude":89.8468139,"btsAltitudeFt":55.77428},
{"btsCode":"BGKCH01","btsName":"Depara 42m","btsLatitude":22.7208667,"btsLongitude":89.8468139,"btsAltitudeFt":55.77428},
{"btsCode":"BGKCH02","btsName":"Kachua_land_42m","btsLatitude":22.6513611,"btsLongitude":89.8958333,"btsAltitudeFt":55.77428},
{"btsCode":"BGKCH02","btsName":"Kachua_land_42m","btsLatitude":22.6513611,"btsLongitude":89.8958333,"btsAltitudeFt":55.77428},
{"btsCode":"BGKCH03","btsName":"Bhadal_bazar_land_42m","btsLatitude":22.6024722,"btsLongitude":89.8807222,"btsAltitudeFt":55.77428},
{"btsCode":"BGKCH03","btsName":"Bhadal_bazar_land_42m","btsLatitude":22.6024722,"btsLongitude":89.8807222,"btsAltitudeFt":55.77428},
{"btsCode":"BGKCH03","btsName":"Bhadal_bazar_land_42m","btsLatitude":22.6024722,"btsLongitude":89.8807222,"btsAltitudeFt":55.77428},
{"btsCode":"BGKCH04","btsName":"Signboard bazar_BL","btsLatitude":22.60704,"btsLongitude":89.84972,"btsAltitudeFt":55.77428},
{"btsCode":"BGKCH05","btsName":"Gozalia Bazar_GP","btsLatitude":22.7233888,"btsLongitude":89.8871944,"btsAltitudeFt":55.77428},
{"btsCode":"BGKCH06","btsName":"Moghia_GP","btsLatitude":22.6787,"btsLongitude":89.9116,"btsAltitudeFt":55.77428},
{"btsCode":"BGMLH01","btsName":"Mollahat","btsLatitude":22.9247778,"btsLongitude":89.8044167,"btsAltitudeFt":55.77428},
{"btsCode":"BGMLH01","btsName":"Mollahat","btsLatitude":22.9247778,"btsLongitude":89.8044167,"btsAltitudeFt":55.77428},
{"btsCode":"BGMLH02","btsName":"Gawla_Bazar_42m","btsLatitude":22.85098,"btsLongitude":89.75618,"btsAltitudeFt":55.77428},
{"btsCode":"BGMLH02","btsName":"Gawla_Bazar_42m","btsLatitude":22.85098,"btsLongitude":89.75618,"btsAltitudeFt":55.77428},
{"btsCode":"BGMLH02","btsName":"Gawla_Bazar_42m","btsLatitude":22.85098,"btsLongitude":89.75618,"btsAltitudeFt":55.77428},
{"btsCode":"BGMLH03","btsName":"Faltita_GP","btsLatitude":22.7961111,"btsLongitude":89.7494444,"btsAltitudeFt":55.77428},
{"btsCode":"BGMLH03","btsName":"Faltita_GP","btsLatitude":22.7961111,"btsLongitude":89.7494444,"btsAltitudeFt":55.77428},
{"btsCode":"BGMLH03","btsName":"Faltita_GP","btsLatitude":22.7961111,"btsLongitude":89.7494444,"btsAltitudeFt":55.77428},
{"btsCode":"BGMLH04","btsName":"Joydihi Bazar 32m Land","btsLatitude":22.897139,"btsLongitude":89.762972,"btsAltitudeFt":55.77428},
{"btsCode":"BGMLH04","btsName":"Joydihi Bazar 32m Land","btsLatitude":22.897139,"btsLongitude":89.762972,"btsAltitudeFt":55.77428},
{"btsCode":"BGMLH04","btsName":"Joydihi Bazar 32m Land","btsLatitude":22.897139,"btsLongitude":89.762972,"btsAltitudeFt":55.77428},
{"btsCode":"BGMLH05","btsName":"Gangni Bazar_GP","btsLatitude":22.8778306,"btsLongitude":89.7151667,"btsAltitudeFt":55.77428},
{"btsCode":"BGMLH08","btsName":"Chunkhola Bazar_BL","btsLatitude":22.96694,"btsLongitude":89.75516,"btsAltitudeFt":55.77428},
{"btsCode":"BGMLH09","btsName":"Ghurada Bazar","btsLatitude":22.95015,"btsLongitude":89.77937,"btsAltitudeFt":55.77428},
{"btsCode":"BGMLH10","btsName":"Kodalia Bazar_GP","btsLatitude":22.8529,"btsLongitude":89.8099,"btsAltitudeFt":55.77428},
{"btsCode":"BGMNG01","btsName":"Mongla","btsLatitude":22.4709811,"btsLongitude":89.6038336,"btsAltitudeFt":55.77428},
{"btsCode":"BGMNG01","btsName":"Mongla","btsLatitude":22.4709811,"btsLongitude":89.6038336,"btsAltitudeFt":55.77428},
{"btsCode":"BGMNG01","btsName":"Mongla","btsLatitude":22.4709811,"btsLongitude":89.6038336,"btsAltitudeFt":55.77428},
{"btsCode":"BGMNG02","btsName":"Digraj_Bazar","btsLatitude":22.5313028,"btsLongitude":89.590025,"btsAltitudeFt":55.77428},
{"btsCode":"BGMNG02","btsName":"Digraj_Bazar","btsLatitude":22.5313028,"btsLongitude":89.590025,"btsAltitudeFt":55.77428},
{"btsCode":"BGMNG03","btsName":"Boydhomari Bazar_GP","btsLatitude":22.3994722,"btsLongitude":89.6530833,"btsAltitudeFt":55.77428},
{"btsCode":"BGMNG05","btsName":"Mithakhali Bazar 32mLand","btsLatitude":22.48796,"btsLongitude":89.64048,"btsAltitudeFt":55.77428},
{"btsCode":"BGMRL01","btsName":"Morrelganj","btsLatitude":22.4530349,"btsLongitude":89.8567929,"btsAltitudeFt":55.77428},
{"btsCode":"BGMRL01","btsName":"Morrelganj","btsLatitude":22.4530349,"btsLongitude":89.8567929,"btsAltitudeFt":55.77428},
{"btsCode":"BGMRL02","btsName":"Shannasir hat32m land","btsLatitude":22.3931667,"btsLongitude":89.8641944,"btsAltitudeFt":55.77428},
{"btsCode":"BGMRL02","btsName":"Shannasir hat32m land","btsLatitude":22.3931667,"btsLongitude":89.8641944,"btsAltitudeFt":55.77428},
{"btsCode":"BGMRL02","btsName":"Shannasir hat32m land","btsLatitude":22.3931667,"btsLongitude":89.8641944,"btsAltitudeFt":55.77428},
{"btsCode":"BGMRL04","btsName":"Fulhata_GP","btsLatitude":22.4993056,"btsLongitude":89.7846667,"btsAltitudeFt":55.77428},
{"btsCode":"BGMRL05","btsName":"Vitakhali Bazar_GP","btsLatitude":22.5248333,"btsLongitude":89.8388611,"btsAltitudeFt":55.77428},
{"btsCode":"BGMRL06","btsName":"Kalikabari 32m Land","btsLatitude":22.4865778,"btsLongitude":89.86306,"btsAltitudeFt":55.77428},
{"btsCode":"BGMRL08","btsName":"Daibogahati Bazar_GP","btsLatitude":22.5629444,"btsLongitude":89.8636944,"btsAltitudeFt":55.77428},
{"btsCode":"BGMRL10","btsName":"Jeodhora Bazar_GP","btsLatitude":22.4187,"btsLongitude":89.7288,"btsAltitudeFt":55.77428},
{"btsCode":"BGMRL11","btsName":"Care Bazar","btsLatitude":22.39942,"btsLongitude":89.81438,"btsAltitudeFt":55.77428},
{"btsCode":"BGMRL12","btsName":"Polerhat Bazar_Reloc","btsLatitude":22.52361,"btsLongitude":89.88004,"btsAltitudeFt":55.77428},
{"btsCode":"BGRMP01","btsName":"Rampal_land_55m","btsLatitude":22.5566667,"btsLongitude":89.65125,"btsAltitudeFt":55.77428},
{"btsCode":"BGRMP01","btsName":"Rampal_land_55m","btsLatitude":22.5566667,"btsLongitude":89.65125,"btsAltitudeFt":55.77428},
{"btsCode":"BGRMP01","btsName":"Rampal_land_55m","btsLatitude":22.5566667,"btsLongitude":89.65125,"btsAltitudeFt":55.77428},
{"btsCode":"BGRMP02","btsName":"Foylahat","btsLatitude":22.6336111,"btsLongitude":89.6445833,"btsAltitudeFt":55.77428},
{"btsCode":"BGRMP02","btsName":"Foylahat","btsLatitude":22.6336111,"btsLongitude":89.6445833,"btsAltitudeFt":55.77428},
{"btsCode":"BGRMP03","btsName":"Gouramba_42m_land","btsLatitude":22.6536667,"btsLongitude":89.5775833,"btsAltitudeFt":55.77428},
{"btsCode":"BGRMP03","btsName":"Gouramba_42m_land","btsLatitude":22.6536667,"btsLongitude":89.5775833,"btsAltitudeFt":55.77428},
{"btsCode":"BGRMP04","btsName":"Shannasir Bazar 32m land","btsLatitude":22.55625,"btsLongitude":89.7603889,"btsAltitudeFt":55.77428},
{"btsCode":"BGRMP07","btsName":"Bedkata Bazar_BL","btsLatitude":22.51255,"btsLongitude":89.71513,"btsAltitudeFt":55.77428},
{"btsCode":"BGRMP08","btsName":"Hurka_BL","btsLatitude":22.56485,"btsLongitude":89.60529,"btsAltitudeFt":55.77428},
{"btsCode":"BGRMP09","btsName":"Kaligonj Bazar_GP","btsLatitude":22.5515,"btsLongitude":89.6962,"btsAltitudeFt":55.77428},
{"btsCode":"BGSDR01","btsName":"Bagerhat","btsLatitude":22.6571857,"btsLongitude":89.7978541,"btsAltitudeFt":55.77428},
{"btsCode":"BGSDR01","btsName":"Bagerhat","btsLatitude":22.6571857,"btsLongitude":89.7978541,"btsAltitudeFt":55.77428},
{"btsCode":"BGSDR01","btsName":"Bagerhat","btsLatitude":22.6571857,"btsLongitude":89.7978541,"btsAltitudeFt":55.77428},
{"btsCode":"BGSDR02","btsName":"Bagerhat2__Outdoor_","btsLatitude":22.6481389,"btsLongitude":89.7883333,"btsAltitudeFt":55.77428},
{"btsCode":"BGSDR02","btsName":"Bagerhat2__Outdoor_","btsLatitude":22.6481389,"btsLongitude":89.7883333,"btsAltitudeFt":55.77428},
{"btsCode":"BGSDR03","btsName":"Sign_board_bazar_75m_land","btsLatitude":22.6497222,"btsLongitude":89.81075,"btsAltitudeFt":55.77428},
{"btsCode":"BGSDR03","btsName":"Sign_board_bazar_75m_land","btsLatitude":22.6497222,"btsLongitude":89.81075,"btsAltitudeFt":55.77428},
{"btsCode":"BGSDR03","btsName":"Sign_board_bazar_75m_land","btsLatitude":22.6497222,"btsLongitude":89.81075,"btsAltitudeFt":55.77428},
{"btsCode":"BGSDR04","btsName":"Saira_Modhudia","btsLatitude":22.66525,"btsLongitude":89.7016944,"btsAltitudeFt":55.77428},
{"btsCode":"BGSDR04","btsName":"Saira_Modhudia","btsLatitude":22.66525,"btsLongitude":89.7016944,"btsAltitudeFt":55.77428},
{"btsCode":"BGSDR05","btsName":"Jatrapur_Reloc","btsLatitude":22.71517,"btsLongitude":89.76042,"btsAltitudeFt":55.77428},
{"btsCode":"BGSDR05","btsName":"Jatrapur_Reloc","btsLatitude":22.71517,"btsLongitude":89.76042,"btsAltitudeFt":55.77428},
{"btsCode":"BGSDR05","btsName":"Jatrapur_Reloc","btsLatitude":22.71517,"btsLongitude":89.76042,"btsAltitudeFt":55.77428},
{"btsCode":"BGSDR06","btsName":"C&B bazar_Warid","btsLatitude":22.7056389,"btsLongitude":89.6936944,"btsAltitudeFt":55.77428},
{"btsCode":"BGSDR07","btsName":"Khan Jahan Ali Bazar_32mLand","btsLatitude":22.6622778,"btsLongitude":89.75925,"btsAltitudeFt":55.77428},
{"btsCode":"BGSDR07","btsName":"Khan Jahan Ali Bazar_32mLand","btsLatitude":22.6622778,"btsLongitude":89.75925,"btsAltitudeFt":55.77428},
{"btsCode":"BGSDR07","btsName":"Khan Jahan Ali Bazar_32mLand","btsLatitude":22.6622778,"btsLongitude":89.75925,"btsAltitudeFt":55.77428},
{"btsCode":"BGSDR08","btsName":"Chulkathi Bazar_32m Land","btsLatitude":22.6999167,"btsLongitude":89.65125,"btsAltitudeFt":55.77428},
{"btsCode":"BGSDR08","btsName":"Chulkathi Bazar_32m Land","btsLatitude":22.6999167,"btsLongitude":89.65125,"btsAltitudeFt":55.77428},
{"btsCode":"BGSDR09","btsName":"Kashempur Bazar_GP","btsLatitude":22.6008056,"btsLongitude":89.7583889,"btsAltitudeFt":55.77428},
{"btsCode":"BGSDR10","btsName":"Hoder Hat_GP","btsLatitude":22.7451667,"btsLongitude":89.7944722,"btsAltitudeFt":55.77428},
{"btsCode":"BGSDR10","btsName":"Hoder Hat_GP","btsLatitude":22.7451667,"btsLongitude":89.7944722,"btsAltitudeFt":55.77428},
{"btsCode":"BGSDR11","btsName":"College road Bagerhat_Airtel","btsLatitude":22.6567,"btsLongitude":89.7785,"btsAltitudeFt":55.77428},
{"btsCode":"BGSDR11","btsName":"College road Bagerhat_Airtel","btsLatitude":22.6567,"btsLongitude":89.7785,"btsAltitudeFt":55.77428},
{"btsCode":"BGSDR13","btsName":"Gotapara_Mukhait Bazar","btsLatitude":22.70324,"btsLongitude":89.79424,"btsAltitudeFt":55.77428},
{"btsCode":"BGSDR14","btsName":"Arpara_Parkushail","btsLatitude":22.77093,"btsLongitude":89.78007,"btsAltitudeFt":55.77428},
{"btsCode":"BGSRN01","btsName":"Sarankhola","btsLatitude":22.3150571,"btsLongitude":89.8521804,"btsAltitudeFt":55.77428},
{"btsCode":"BGSRN01","btsName":"Sarankhola","btsLatitude":22.3150571,"btsLongitude":89.8521804,"btsAltitudeFt":55.77428},
{"btsCode":"BGSRN03","btsName":"Rajapur bazar","btsLatitude":22.33724,"btsLongitude":89.78221,"btsAltitudeFt":55.77428},
{"btsCode":"BGSRN04","btsName":"Bangla Bazar","btsLatitude":22.30233,"btsLongitude":89.80965,"btsAltitudeFt":55.77428},
{"btsCode":"BGSRN05","btsName":"Tofelbari_Reloc","btsLatitude":22.26146,"btsLongitude":89.82885,"btsAltitudeFt":55.77428},
{"btsCode":"BHBRN01","btsName":"Borhannuddin","btsLatitude":22.5014825,"btsLongitude":90.7151575,"btsAltitudeFt":55.77428},
{"btsCode":"BHBRN01","btsName":"Borhannuddin","btsLatitude":22.5014825,"btsLongitude":90.7151575,"btsAltitudeFt":55.77428},
{"btsCode":"BHBRN01","btsName":"Borhannuddin","btsLatitude":22.5014825,"btsLongitude":90.7151575,"btsAltitudeFt":55.77428},
{"btsCode":"BHBRN02","btsName":"Moniram","btsLatitude":22.4562778,"btsLongitude":90.7731667,"btsAltitudeFt":55.77428},
{"btsCode":"BHBRN03","btsName":"Tabgi_GP","btsLatitude":22.4856944,"btsLongitude":90.7693333,"btsAltitudeFt":55.77428},
{"btsCode":"BHBRN04","btsName":"Mojom Bazar_GP","btsLatitude":22.4245556,"btsLongitude":90.6990278,"btsAltitudeFt":55.77428},
{"btsCode":"BHBRN05","btsName":"Kunjer Hat_32m Land","btsLatitude":22.42752,"btsLongitude":90.76875,"btsAltitudeFt":55.77428},
{"btsCode":"BHBRN06","btsName":"Mirzakhali_GP","btsLatitude":22.472,"btsLongitude":90.8007778,"btsAltitudeFt":55.77428},
{"btsCode":"BHBRN07","btsName":"Borhangonj_GP","btsLatitude":22.4881667,"btsLongitude":90.7450556,"btsAltitudeFt":55.77428},
{"btsCode":"BHBRN09","btsName":"Darun Bazar_GP","btsLatitude":22.46,"btsLongitude":90.6830556,"btsAltitudeFt":55.77428},
{"btsCode":"BHBRN10","btsName":"Boro Manika","btsLatitude":22.53581,"btsLongitude":90.72415,"btsAltitudeFt":55.77428},
{"btsCode":"BHBRN11","btsName":"Talukdar Hat_BL","btsLatitude":22.4621552,"btsLongitude":90.7262123,"btsAltitudeFt":55.77428},
{"btsCode":"BHBRN13","btsName":"Kachia_Bhola","btsLatitude":22.44994,"btsLongitude":90.74133,"btsAltitudeFt":55.77428},
{"btsCode":"BHCFN02","btsName":"Shashibhusan_32m Land","btsLatitude":22.1038056,"btsLongitude":90.7096667,"btsAltitudeFt":55.77428},
{"btsCode":"BHCFN03","btsName":"South Aicha_GP","btsLatitude":22.0271944,"btsLongitude":90.6823333,"btsAltitudeFt":55.77428},
{"btsCode":"BHCFN04","btsName":"Nurabad_GP","btsLatitude":22.1937222,"btsLongitude":90.6731944,"btsAltitudeFt":55.77428},
{"btsCode":"BHCFN07","btsName":"Chairman Hat_GP","btsLatitude":22.1028889,"btsLongitude":90.7630833,"btsAltitudeFt":55.77428},
{"btsCode":"BHCFN08","btsName":"Kashemganj_GP","btsLatitude":22.1486389,"btsLongitude":90.7440556,"btsAltitudeFt":55.77428},
{"btsCode":"BHCFN09","btsName":"Madraz Bazar_GP","btsLatitude":22.1628056,"btsLongitude":90.7887222,"btsAltitudeFt":55.77428},
{"btsCode":"BHCFN09","btsName":"Madraz Bazar_GP","btsLatitude":22.1628056,"btsLongitude":90.7887222,"btsAltitudeFt":55.77428},
{"btsCode":"BHCFN10","btsName":"Hajir Haat_GP","btsLatitude":22.1599167,"btsLongitude":90.6526667,"btsAltitudeFt":55.77428},
{"btsCode":"BHCFN15","btsName":"Osman Gonj Bazar","btsLatitude":22.23806,"btsLongitude":90.70443,"btsAltitudeFt":55.77428},
{"btsCode":"BHCFN16","btsName":"Rasul Pur Bazar","btsLatitude":22.07338,"btsLongitude":90.67462,"btsAltitudeFt":55.77428},
{"btsCode":"BHCFN17","btsName":"Char Manika_GP","btsLatitude":22.01312,"btsLongitude":90.6323,"btsAltitudeFt":55.77428},
{"btsCode":"BHCFN18","btsName":"Char Kalmi_GP","btsLatitude":22.06155,"btsLongitude":90.60961,"btsAltitudeFt":55.77428},
{"btsCode":"BHCFN20","btsName":"Abuganj Bazar_GP","btsLatitude":22.20645,"btsLongitude":90.79575,"btsAltitudeFt":55.77428},
{"btsCode":"BHCFN21","btsName":"Shibar Char_Aminabad","btsLatitude":22.15737,"btsLongitude":90.68384,"btsAltitudeFt":55.77428},
{"btsCode":"BHCFN22","btsName":"Ewajpur","btsLatitude":22.13018,"btsLongitude":90.70936,"btsAltitudeFt":55.77428},
{"btsCode":"BHCFN23","btsName":"Atkopta Bazar","btsLatitude":22.06256,"btsLongitude":90.71379,"btsAltitudeFt":55.77428},
{"btsCode":"BHCFN24","btsName":"Bashhat Dullah Bazar","btsLatitude":22.17913,"btsLongitude":90.71386,"btsAltitudeFt":55.77428},
{"btsCode":"BHCFN25","btsName":"Bangla Bazar_Osmanganj","btsLatitude":22.2059,"btsLongitude":90.71194,"btsAltitudeFt":55.77428},
{"btsCode":"BHCFN26","btsName":"Anjur Hat_Reloc","btsLatitude":22.10859,"btsLongitude":90.64081,"btsAltitudeFt":55.77428},
{"btsCode":"BHCFN27","btsName":"Janata Bazar_Reloc","btsLatitude":22.234311,"btsLongitude":90.74963,"btsAltitudeFt":55.77428},
{"btsCode":"BHDLT01","btsName":"Daulatkhan","btsLatitude":22.60069,"btsLongitude":90.74654,"btsAltitudeFt":55.77428},
{"btsCode":"BHDLT01","btsName":"Daulatkhan","btsLatitude":22.60069,"btsLongitude":90.74654,"btsAltitudeFt":55.77428},
{"btsCode":"BHDLT01","btsName":"Daulatkhan","btsLatitude":22.60069,"btsLongitude":90.74654,"btsAltitudeFt":55.77428},
{"btsCode":"BHDLT02","btsName":"Guinger Hat_GP","btsLatitude":22.6251389,"btsLongitude":90.6616389,"btsAltitudeFt":55.77428},
{"btsCode":"BHDLT03","btsName":"Dalil khar hat_GP","btsLatitude":22.6068889,"btsLongitude":90.7146667,"btsAltitudeFt":55.77428},
{"btsCode":"BHDLT04","btsName":"Nur Miar Hat_Gp","btsLatitude":22.5628611,"btsLongitude":90.7149167,"btsAltitudeFt":55.77428},
{"btsCode":"BHDLT06","btsName":"Char pata","btsLatitude":22.63205,"btsLongitude":90.69609,"btsAltitudeFt":55.77428},
{"btsCode":"BHDLT07","btsName":"Daulatkhan2","btsLatitude":22.5860593,"btsLongitude":90.7435025,"btsAltitudeFt":55.77428},
{"btsCode":"BHDLT08","btsName":"Miar Hat Bazar_Uttar Joynagar","btsLatitude":22.595411,"btsLongitude":90.689337,"btsAltitudeFt":55.77428},
{"btsCode":"BHLMN01","btsName":"Lalmohon","btsLatitude":22.3412885,"btsLongitude":90.732071,"btsAltitudeFt":55.77428},
{"btsCode":"BHLMN01","btsName":"Lalmohon","btsLatitude":22.3412885,"btsLongitude":90.732071,"btsAltitudeFt":55.77428},
{"btsCode":"BHLMN02","btsName":"Lord_Hardinge_land_42m","btsLatitude":22.2681389,"btsLongitude":90.8111389,"btsAltitudeFt":55.77428},
{"btsCode":"BHLMN03","btsName":"Char Umed, Gazaria","btsLatitude":22.2681111,"btsLongitude":90.7098611,"btsAltitudeFt":55.77428},
{"btsCode":"BHLMN04","btsName":"Mongol Sikder 25m Land","btsLatitude":22.3430556,"btsLongitude":90.8226389,"btsAltitudeFt":55.77428},
{"btsCode":"BHLMN05","btsName":"Dowrihat 32m land","btsLatitude":22.3911389,"btsLongitude":90.7533056,"btsAltitudeFt":55.77428},
{"btsCode":"BHLMN06","btsName":"Nazirpur_Lalmohon_GP","btsLatitude":22.35075,"btsLongitude":90.6844444,"btsAltitudeFt":55.77428},
{"btsCode":"BHLMN07","btsName":"Harigonj_GP","btsLatitude":22.3465833,"btsLongitude":90.7701389,"btsAltitudeFt":55.77428},
{"btsCode":"BHLMN09","btsName":"Ramaganj","btsLatitude":22.29021,"btsLongitude":90.75095,"btsAltitudeFt":55.77428},
{"btsCode":"BHLMN10","btsName":"Chatla bazar","btsLatitude":22.316042,"btsLongitude":90.819065,"btsAltitudeFt":55.77428},
{"btsCode":"BHLMN12","btsName":"Korterhat Bazar","btsLatitude":22.263,"btsLongitude":90.74683,"btsAltitudeFt":55.77428},
{"btsCode":"BHMNP01","btsName":"Monpura_reloc_BL","btsLatitude":22.260489,"btsLongitude":90.972621,"btsAltitudeFt":55.77428},
{"btsCode":"BHMNP03","btsName":"Banglabazar_GP","btsLatitude":22.1787778,"btsLongitude":90.9408889,"btsAltitudeFt":55.77428},
{"btsCode":"BHMNP05","btsName":"Koralia Bazar_Sakuchia","btsLatitude":22.14533,"btsLongitude":90.92749,"btsAltitudeFt":55.77428},
{"btsCode":"BHMNP06","btsName":"Ramnewaz Bazar_Reloc","btsLatitude":22.3088,"btsLongitude":90.98131,"btsAltitudeFt":55.77428},
{"btsCode":"BHSDR03","btsName":"Bhola_land_75m","btsLatitude":22.7331944,"btsLongitude":90.6208611,"btsAltitudeFt":55.77428},
{"btsCode":"BHSDR03","btsName":"Bhola_land_75m","btsLatitude":22.7331944,"btsLongitude":90.6208611,"btsAltitudeFt":55.77428},
{"btsCode":"BHSDR04","btsName":"Bhola Bus stand","btsLatitude":22.6505556,"btsLongitude":90.6654722,"btsAltitudeFt":55.77428},
{"btsCode":"BHSDR04","btsName":"Bhola Bus stand","btsLatitude":22.6505556,"btsLongitude":90.6654722,"btsAltitudeFt":55.77428},
{"btsCode":"BHSDR05","btsName":"Tulatuli Bazar_GP","btsLatitude":22.7161111,"btsLongitude":90.6761667,"btsAltitudeFt":55.77428},
{"btsCode":"BHSDR06","btsName":"Ilisha Ghat 32m","btsLatitude":22.781323,"btsLongitude":90.648132,"btsAltitudeFt":55.77428},
{"btsCode":"BHSDR07","btsName":"Kheaghat_32mLand","btsLatitude":22.6777778,"btsLongitude":90.6094444,"btsAltitudeFt":55.77428},
{"btsCode":"BHSDR07","btsName":"Kheaghat_32mLand","btsLatitude":22.6777778,"btsLongitude":90.6094444,"btsAltitudeFt":55.77428},
{"btsCode":"BHSDR08","btsName":"Bhola Town_GP","btsLatitude":22.6706944,"btsLongitude":90.6740278,"btsAltitudeFt":55.77428},
{"btsCode":"BHSDR08","btsName":"Bhola Town_GP","btsLatitude":22.6706944,"btsLongitude":90.6740278,"btsAltitudeFt":55.77428},
{"btsCode":"BHSDR10","btsName":"Shantir Hat_GP","btsLatitude":22.5678611,"btsLongitude":90.6465833,"btsAltitudeFt":55.77428},
{"btsCode":"BHSDR11","btsName":"Dakshin Dighaldi_GP","btsLatitude":22.54303,"btsLongitude":90.6737,"btsAltitudeFt":55.77428},
{"btsCode":"BHSDR12","btsName":"Illisha_BL","btsLatitude":22.75236,"btsLongitude":90.6363,"btsAltitudeFt":55.77428},
{"btsCode":"BHSDR15","btsName":"Kachia Bazar_Airte","btsLatitude":22.7389,"btsLongitude":90.5884,"btsAltitudeFt":55.77428},
{"btsCode":"BHSDR16","btsName":"Bapta","btsLatitude":22.712157,"btsLongitude":90.646951,"btsAltitudeFt":55.77428},
{"btsCode":"BHSDR18","btsName":"Bapta_GP","btsLatitude":22.6953889,"btsLongitude":90.6488056,"btsAltitudeFt":55.77428},
{"btsCode":"BHSDR19","btsName":"Jangalia Bazar","btsLatitude":22.7099,"btsLongitude":90.6035,"btsAltitudeFt":55.77428},
{"btsCode":"BHSDR20","btsName":"Ranirhat Bazar","btsLatitude":22.61581,"btsLongitude":90.6325,"btsAltitudeFt":55.77428},
{"btsCode":"BHSDR21","btsName":"Shantir Hat_Airtel","btsLatitude":22.65119,"btsLongitude":90.61426,"btsAltitudeFt":55.77428},
{"btsCode":"BHSDR22","btsName":"Bhola City2","btsLatitude":22.68811,"btsLongitude":90.64435,"btsAltitudeFt":55.77428},
{"btsCode":"BHSDR22","btsName":"Bhola City2","btsLatitude":22.68811,"btsLongitude":90.64435,"btsAltitudeFt":55.77428},
{"btsCode":"BHSDR24","btsName":"Char Noabad","btsLatitude":22.69475,"btsLongitude":90.62048,"btsAltitudeFt":55.77428},
{"btsCode":"BHSDR25","btsName":"Alinagar_Bhola_Airtel","btsLatitude":22.67274,"btsLongitude":90.65263,"btsAltitudeFt":55.77428},
{"btsCode":"BHSDR28","btsName":"Chandra Prashad","btsLatitude":22.58355,"btsLongitude":90.60152,"btsAltitudeFt":55.77428},
{"btsCode":"BHSDR29","btsName":"Jamirtala_Bhola","btsLatitude":22.68024,"btsLongitude":90.64072,"btsAltitudeFt":55.77428},
{"btsCode":"BHSDR30","btsName":"Velumia_Reloc","btsLatitude":22.61805,"btsLongitude":90.58917,"btsAltitudeFt":55.77428},
{"btsCode":"BHSDR31","btsName":"Veduria ferry ghat","btsLatitude":22.70865,"btsLongitude":90.56673,"btsAltitudeFt":55.77428},
{"btsCode":"BHSDR32","btsName":"Kalinath bazer_Bhola","btsLatitude":22.68662,"btsLongitude":90.6387,"btsAltitudeFt":55.77428},
{"btsCode":"BHSDR33","btsName":"Banker Hat_Bhedaria_BL","btsLatitude":22.675,"btsLongitude":90.5799,"btsAltitudeFt":55.77428},
{"btsCode":"BHSDR34","btsName":"Bhola City_Reloc","btsLatitude":22.6831546,"btsLongitude":90.6457971,"btsAltitudeFt":55.77428},
{"btsCode":"BHSDR34","btsName":"Bhola_city_Reloc","btsLatitude":22.68291,"btsLongitude":90.64571,"btsAltitudeFt":55.77428},
{"btsCode":"BHSDR34","btsName":"Bhola City_Reloc","btsLatitude":22.6831546,"btsLongitude":90.6457971,"btsAltitudeFt":55.77428},
{"btsCode":"BHTMN01","btsName":"Tajumuddin_land_42m","btsLatitude":22.4131111,"btsLongitude":90.8468056,"btsAltitudeFt":55.77428},
{"btsCode":"BHTMN01","btsName":"Tajumuddin_land_42m","btsLatitude":22.4131111,"btsLongitude":90.8468056,"btsAltitudeFt":55.77428},
{"btsCode":"BHTMN03","btsName":"Deuri Bazar_GP","btsLatitude":22.4241667,"btsLongitude":90.8078333,"btsAltitudeFt":55.77428},
{"btsCode":"BHTMN04","btsName":"Dakkhin chapri_GP","btsLatitude":22.4484722,"btsLongitude":90.816722,"btsAltitudeFt":55.77428},
{"btsCode":"BHTMN05","btsName":"Char Abdullah","btsLatitude":22.53621,"btsLongitude":90.89352,"btsAltitudeFt":55.77428},
{"btsCode":"BHTMN06","btsName":"Salim Bazar","btsLatitude":22.55689,"btsLongitude":90.86903,"btsAltitudeFt":55.77428},
{"btsCode":"BHTMN07","btsName":"Kaserhat_Reloc","btsLatitude":22.3833,"btsLongitude":90.80891,"btsAltitudeFt":55.77428},
{"btsCode":"BMAKH01","btsName":"Akhaura","btsLatitude":23.8680169,"btsLongitude":91.2062287,"btsAltitudeFt":55.77428},
{"btsCode":"BMAKH01","btsName":"Akhaura","btsLatitude":23.8680169,"btsLongitude":91.2062287,"btsAltitudeFt":55.77428},
{"btsCode":"BMAKH02","btsName":"Mogra_Bazar","btsLatitude":23.8318235,"btsLongitude":91.1982848,"btsAltitudeFt":55.77428},
{"btsCode":"BMAKH02","btsName":"Mogra_Bazar","btsLatitude":23.8318235,"btsLongitude":91.1982848,"btsAltitudeFt":55.77428},
{"btsCode":"BMAKH03","btsName":"Sengarbil","btsLatitude":23.90447,"btsLongitude":91.21699,"btsAltitudeFt":55.77428},
{"btsCode":"BMAKH04","btsName":"Tantur","btsLatitude":23.8254698,"btsLongitude":91.1542253,"btsAltitudeFt":55.77428},
{"btsCode":"BMAKH04","btsName":"Tantur","btsLatitude":23.8254698,"btsLongitude":91.1542253,"btsAltitudeFt":55.77428},
{"btsCode":"BMAKH05","btsName":"Gazi Bazar","btsLatitude":23.848389,"btsLongitude":91.238417,"btsAltitudeFt":55.77428},
{"btsCode":"BMAKH05","btsName":"Gazi Bazar","btsLatitude":23.848389,"btsLongitude":91.238417,"btsAltitudeFt":55.77428},
{"btsCode":"BMAKH08","btsName":"Kornel Bazar_GP","btsLatitude":23.8216389,"btsLongitude":91.228139,"btsAltitudeFt":55.77428},
{"btsCode":"BMAKH08","btsName":"Kornel Bazar_GP","btsLatitude":23.8216389,"btsLongitude":91.228139,"btsAltitudeFt":55.77428},
{"btsCode":"BMAKH09","btsName":"Debgram Bazar_GP","btsLatitude":23.8549,"btsLongitude":91.2073,"btsAltitudeFt":55.77428},
{"btsCode":"BMAKH11","btsName":"Moniondo Bazar","btsLatitude":23.80746,"btsLongitude":91.19011,"btsAltitudeFt":55.77428},
{"btsCode":"BMAKH11","btsName":"Moniondo Bazar","btsLatitude":23.80746,"btsLongitude":91.19011,"btsAltitudeFt":55.77428},
{"btsCode":"BMAKH12","btsName":"Kharompur Mazar_Airtel","btsLatitude":23.88025,"btsLongitude":91.21047,"btsAltitudeFt":55.77428},
{"btsCode":"BMAKH12","btsName":"Kharompur Mazar_Airtel","btsLatitude":23.88025,"btsLongitude":91.21047,"btsAltitudeFt":55.77428},
{"btsCode":"BMASG01","btsName":"Ashuganj","btsLatitude":24.04064,"btsLongitude":91.00333,"btsAltitudeFt":55.77428},
{"btsCode":"BMASG01","btsName":"Ashuganj","btsLatitude":24.04064,"btsLongitude":91.00333,"btsAltitudeFt":55.77428},
{"btsCode":"BMASG01","btsName":"Ashuganj","btsLatitude":24.04064,"btsLongitude":91.00333,"btsAltitudeFt":55.77428},
{"btsCode":"BMASG02","btsName":"Ashuganj_power_station","btsLatitude":24.03834,"btsLongitude":91.01192,"btsAltitudeFt":55.77428},
{"btsCode":"BMASG02","btsName":"Ashuganj_power_station","btsLatitude":24.03834,"btsLongitude":91.01192,"btsAltitudeFt":55.77428},
{"btsCode":"BMASG03","btsName":"Lalpur2__BBaria","btsLatitude":23.98362,"btsLongitude":90.97906,"btsAltitudeFt":55.77428},
{"btsCode":"BMASG04","btsName":"Arai_Shidha","btsLatitude":24.01131,"btsLongitude":91.004,"btsAltitudeFt":55.77428},
{"btsCode":"BMASG05","btsName":"Zia_Fertilizer","btsLatitude":24.02005,"btsLongitude":90.98778,"btsAltitudeFt":55.77428},
{"btsCode":"BMASG05","btsName":"Zia_Fertilizer","btsLatitude":24.02005,"btsLongitude":90.98778,"btsAltitudeFt":55.77428},
{"btsCode":"BMASG06","btsName":"Bahadurpur","btsLatitude":24.04237,"btsLongitude":91.04414,"btsAltitudeFt":55.77428},
{"btsCode":"BMASG07","btsName":"Talshahar","btsLatitude":24.01383,"btsLongitude":91.03239,"btsAltitudeFt":55.77428},
{"btsCode":"BMASG10","btsName":"Tarua Bazar_BL","btsLatitude":24.0006,"btsLongitude":91.0241,"btsAltitudeFt":55.77428},
{"btsCode":"BMASG11","btsName":"Moishar Bazar","btsLatitude":24.03461,"btsLongitude":91.05948,"btsAltitudeFt":55.77428},
{"btsCode":"BMBNC01","btsName":"Bancharampur","btsLatitude":23.7802433,"btsLongitude":90.7941846,"btsAltitudeFt":55.77428},
{"btsCode":"BMBNC01","btsName":"Bancharampur","btsLatitude":23.7802433,"btsLongitude":90.7941846,"btsAltitudeFt":55.77428},
{"btsCode":"BMBNC02","btsName":"Ruposdi","btsLatitude":23.7888527,"btsLongitude":90.8554837,"btsAltitudeFt":55.77428},
{"btsCode":"BMBNC02","btsName":"Ruposdi","btsLatitude":23.7888527,"btsLongitude":90.8554837,"btsAltitudeFt":55.77428},
{"btsCode":"BMBNC03","btsName":"Dhariarchar","btsLatitude":23.7514324,"btsLongitude":90.7564101,"btsAltitudeFt":55.77428},
{"btsCode":"BMBNC03","btsName":"Dhariarchar","btsLatitude":23.7514324,"btsLongitude":90.7564101,"btsAltitudeFt":55.77428},
{"btsCode":"BMBNC19","btsName":"Bancharampur2_BL","btsLatitude":23.772,"btsLongitude":90.8004,"btsAltitudeFt":55.77428},
{"btsCode":"BMBNC04","btsName":"Morichakandi Land 55m","btsLatitude":23.8526657,"btsLongitude":90.79246,"btsAltitudeFt":55.77428},
{"btsCode":"BMBNC04","btsName":"Morichakandi Land 55m","btsLatitude":23.8526657,"btsLongitude":90.79246,"btsAltitudeFt":55.77428},
{"btsCode":"BMBNC05","btsName":"Sonarampur","btsLatitude":23.8200833,"btsLongitude":90.7882778,"btsAltitudeFt":55.77428},
{"btsCode":"BMBNC06","btsName":"Saifullahkandi","btsLatitude":23.8042222,"btsLongitude":90.8396389,"btsAltitudeFt":55.77428},
{"btsCode":"BMBNC06","btsName":"Saifullahkandi","btsLatitude":23.8042222,"btsLongitude":90.8396389,"btsAltitudeFt":55.77428},
{"btsCode":"BMBNC07","btsName":"Shafirkandi","btsLatitude":23.7580833,"btsLongitude":90.7824444,"btsAltitudeFt":55.77428},
{"btsCode":"BMBNC07","btsName":"Shafirkandi","btsLatitude":23.7580833,"btsLongitude":90.7824444,"btsAltitudeFt":55.77428},
{"btsCode":"BMBNC08","btsName":"Solimabad Bazar 32m Land","btsLatitude":23.7663056,"btsLongitude":90.8199722,"btsAltitudeFt":55.77428},
{"btsCode":"BMBNC08","btsName":"Solimabad Bazar 32m Land","btsLatitude":23.7663056,"btsLongitude":90.8199722,"btsAltitudeFt":55.77428},
{"btsCode":"BMBNC09","btsName":"South Ruposdi_25m","btsLatitude":23.7595833,"btsLongitude":90.8573333,"btsAltitudeFt":55.77428},
{"btsCode":"BMBNC09","btsName":"South Ruposdi_25m","btsLatitude":23.7595833,"btsLongitude":90.8573333,"btsAltitudeFt":55.77428},
{"btsCode":"BMBNC10","btsName":"Paharia Kandi","btsLatitude":23.835139,"btsLongitude":90.820056,"btsAltitudeFt":55.77428},
{"btsCode":"BMBNC10","btsName":"Paharia Kandi","btsLatitude":23.835139,"btsLongitude":90.820056,"btsAltitudeFt":55.77428},
{"btsCode":"BMBNC11","btsName":"Anondo Bazar_25m","btsLatitude":23.7875556,"btsLongitude":90.8829444,"btsAltitudeFt":55.77428},
{"btsCode":"BMBNC11","btsName":"Anondo Bazar_25m","btsLatitude":23.7875556,"btsLongitude":90.8829444,"btsAltitudeFt":55.77428},
{"btsCode":"BMBNC12","btsName":"Ujanchar_32m","btsLatitude":23.740639,"btsLongitude":90.789556,"btsAltitudeFt":55.77428},
{"btsCode":"BMBNC12","btsName":"Ujanchar_32m","btsLatitude":23.740639,"btsLongitude":90.789556,"btsAltitudeFt":55.77428},
{"btsCode":"BMBNC15","btsName":"Baher Char","btsLatitude":23.7335833,"btsLongitude":90.7454167,"btsAltitudeFt":55.77428},
{"btsCode":"BMBNC15","btsName":"Baher Char","btsLatitude":23.7335833,"btsLongitude":90.7454167,"btsAltitudeFt":55.77428},
{"btsCode":"BMBNC16","btsName":"Bancharampur_Asadnogor_GP","btsLatitude":23.780528,"btsLongitude":90.815278,"btsAltitudeFt":55.77428},
{"btsCode":"BMBNC16","btsName":"Bancharampur_Asadnogor_GP","btsLatitude":23.780528,"btsLongitude":90.815278,"btsAltitudeFt":55.77428},
{"btsCode":"BMBNC17","btsName":"Rupasdi Dakshinpara_BL","btsLatitude":23.7715,"btsLongitude":90.8649,"btsAltitudeFt":55.77428},
{"btsCode":"BMBNC18","btsName":"Fordabad Bazar_BL","btsLatitude":23.75277,"btsLongitude":90.88304,"btsAltitudeFt":55.77428},
{"btsCode":"BMBNC18","btsName":"Fordabad Bazar_BL","btsLatitude":23.75277,"btsLongitude":90.88304,"btsAltitudeFt":55.77428},
{"btsCode":"BMBNC19","btsName":"Bancharampur2_BL","btsLatitude":23.772,"btsLongitude":90.8004,"btsAltitudeFt":55.77428},
{"btsCode":"BMBNC21","btsName":"Radhanagar","btsLatitude":23.70117,"btsLongitude":90.77681,"btsAltitudeFt":55.77428},
{"btsCode":"BMBNC21","btsName":"Radhanagar","btsLatitude":23.70117,"btsLongitude":90.77681,"btsAltitudeFt":55.77428},
{"btsCode":"BMBNC22","btsName":"Purbahati","btsLatitude":23.73573,"btsLongitude":90.86611,"btsAltitudeFt":55.77428},
{"btsCode":"BMBNC22","btsName":"Purbahati","btsLatitude":23.73573,"btsLongitude":90.86611,"btsAltitudeFt":55.77428},
{"btsCode":"BMBNC23","btsName":"Banchharampur3_BL","btsLatitude":23.7687,"btsLongitude":90.7944,"btsAltitudeFt":55.77428},
{"btsCode":"BMBNC23","btsName":"Banchharampur3_BL","btsLatitude":23.7687,"btsLongitude":90.7944,"btsAltitudeFt":55.77428},
{"btsCode":"BMBNC24","btsName":"Bishnarampur Bazar_GP","btsLatitude":23.8292,"btsLongitude":90.8522,"btsAltitudeFt":55.77428},
{"btsCode":"BMKSB02","btsName":"Kuti","btsLatitude":23.7438244,"btsLongitude":91.0778694,"btsAltitudeFt":55.77428},
{"btsCode":"BMKSB02","btsName":"Kuti","btsLatitude":23.7438244,"btsLongitude":91.0778694,"btsAltitudeFt":55.77428},
{"btsCode":"BMKSB03","btsName":"Chargas","btsLatitude":23.810048,"btsLongitude":91.0882314,"btsAltitudeFt":55.77428},
{"btsCode":"BMKSB03","btsName":"Chargas","btsLatitude":23.810048,"btsLongitude":91.0882314,"btsAltitudeFt":55.77428},
{"btsCode":"BMKSB04","btsName":"Nayanpur","btsLatitude":23.6708056,"btsLongitude":91.1485556,"btsAltitudeFt":55.77428},
{"btsCode":"BMKSB04","btsName":"Nayanpur","btsLatitude":23.6708056,"btsLongitude":91.1485556,"btsAltitudeFt":55.77428},
{"btsCode":"BMKSB05","btsName":"Kheora_Bazar_land_75m","btsLatitude":23.7783266,"btsLongitude":91.093983,"btsAltitudeFt":55.77428},
{"btsCode":"BMKSB05","btsName":"Kheora_Bazar_land_75m","btsLatitude":23.7783266,"btsLongitude":91.093983,"btsAltitudeFt":55.77428},
{"btsCode":"BMKSB06","btsName":"Gopinathpur","btsLatitude":23.7915833,"btsLongitude":91.1743889,"btsAltitudeFt":55.77428},
{"btsCode":"BMKSB06","btsName":"Gopinathpur","btsLatitude":23.7915833,"btsLongitude":91.1743889,"btsAltitudeFt":55.77428},
{"btsCode":"BMKSB07","btsName":"Shahpur","btsLatitude":23.7515556,"btsLongitude":91.1166389,"btsAltitudeFt":55.77428},
{"btsCode":"BMKSB07","btsName":"Shahpur","btsLatitude":23.7515556,"btsLongitude":91.1166389,"btsAltitudeFt":55.77428},
{"btsCode":"BMKSB08","btsName":"Monkashair 25m land","btsLatitude":23.7843889,"btsLongitude":91.1318056,"btsAltitudeFt":55.77428},
{"btsCode":"BMKSB08","btsName":"Monkashair 25m land","btsLatitude":23.7843889,"btsLongitude":91.1318056,"btsAltitudeFt":55.77428},
{"btsCode":"BMKSB09","btsName":"Moinpur_BL","btsLatitude":23.7135,"btsLongitude":91.1250556,"btsAltitudeFt":55.77428},
{"btsCode":"BMKSB09","btsName":"Moinpur_BL","btsLatitude":23.7135,"btsLongitude":91.1250556,"btsAltitudeFt":55.77428},
{"btsCode":"BMNBG01","btsName":"Nabinagar","btsLatitude":23.88485,"btsLongitude":90.97019,"btsAltitudeFt":55.77428},
{"btsCode":"BMKSB10","btsName":"Rajnagar","btsLatitude":23.7639722,"btsLongitude":91.1960833,"btsAltitudeFt":55.77428},
{"btsCode":"BMKSB10","btsName":"Rajnagar","btsLatitude":23.7639722,"btsLongitude":91.1960833,"btsAltitudeFt":55.77428},
{"btsCode":"BMKSB11","btsName":"Mullogram 32m","btsLatitude":23.8467222,"btsLongitude":91.0908056,"btsAltitudeFt":55.77428},
{"btsCode":"BMKSB16","btsName":"Mondobhagh Bazar","btsLatitude":23.6840591,"btsLongitude":91.1276,"btsAltitudeFt":55.77428},
{"btsCode":"BMKSB17","btsName":"Chalk Chondropur","btsLatitude":23.76487,"btsLongitude":91.17061,"btsAltitudeFt":55.77428},
{"btsCode":"BMKSB17","btsName":"Chalk Chondropur","btsLatitude":23.76487,"btsLongitude":91.17061,"btsAltitudeFt":55.77428},
{"btsCode":"BMKSB18","btsName":"Rampur Bazar_Gopinathpur","btsLatitude":23.76588,"btsLongitude":91.21437,"btsAltitudeFt":55.77428},
{"btsCode":"BMKSB20","btsName":"Kashba_Reloc","btsLatitude":23.7479583,"btsLongitude":91.1459444,"btsAltitudeFt":55.77428},
{"btsCode":"BMKSB20","btsName":"Kashba_Reloc","btsLatitude":23.74874,"btsLongitude":91.146,"btsAltitudeFt":55.77428},
{"btsCode":"BMKSB20","btsName":"Kashba_Reloc","btsLatitude":23.7479583,"btsLongitude":91.1459444,"btsAltitudeFt":55.77428},
{"btsCode":"BMKSB20","btsName":"Kashba_Reloc","btsLatitude":23.74874,"btsLongitude":91.146,"btsAltitudeFt":55.77428},
{"btsCode":"BMNBG01","btsName":"Nabinagar","btsLatitude":23.88485,"btsLongitude":90.97019,"btsAltitudeFt":55.77428},
{"btsCode":"BMNBG01","btsName":"Nabinagar","btsLatitude":23.88485,"btsLongitude":90.97019,"btsAltitudeFt":55.77428},
{"btsCode":"BMNBG02","btsName":"Bangura__BBaria","btsLatitude":23.7861545,"btsLongitude":90.9926744,"btsAltitudeFt":55.77428},
{"btsCode":"BMNBG02","btsName":"Bangura__BBaria","btsLatitude":23.7861545,"btsLongitude":90.9926744,"btsAltitudeFt":55.77428},
{"btsCode":"BMNBG03","btsName":"Shamgram","btsLatitude":23.8331333,"btsLongitude":90.8998141,"btsAltitudeFt":55.77428},
{"btsCode":"BMNBG03","btsName":"Shamgram","btsLatitude":23.8331333,"btsLongitude":90.8998141,"btsAltitudeFt":55.77428},
{"btsCode":"BMNBG04","btsName":"Solimganj_Airtel","btsLatitude":23.8497,"btsLongitude":90.85311,"btsAltitudeFt":55.77428},
{"btsCode":"BMNBG04","btsName":"Solimganj_Airtel","btsLatitude":23.8497,"btsLongitude":90.85311,"btsAltitudeFt":55.77428},
{"btsCode":"BMNBG05","btsName":"Sufiabad","btsLatitude":23.8290762,"btsLongitude":90.9862641,"btsAltitudeFt":55.77428},
{"btsCode":"BMNBG05","btsName":"Sufiabad","btsLatitude":23.8290762,"btsLongitude":90.9862641,"btsAltitudeFt":55.77428},
{"btsCode":"BMNBG06","btsName":"Bitghar","btsLatitude":23.8367735,"btsLongitude":91.0370659,"btsAltitudeFt":55.77428},
{"btsCode":"BMNBG06","btsName":"Bitghar","btsLatitude":23.8367735,"btsLongitude":91.0370659,"btsAltitudeFt":55.77428},
{"btsCode":"BMNBG07","btsName":"Jibonganj","btsLatitude":23.8088222,"btsLongitude":90.8854862,"btsAltitudeFt":55.77428},
{"btsCode":"CGBAK32","btsName":"Wiazer para","btsLatitude":22.3617,"btsLongitude":91.86546,"btsAltitudeFt":55.77428},
{"btsCode":"BMNBG07","btsName":"Jibonganj","btsLatitude":23.8088222,"btsLongitude":90.8854862,"btsAltitudeFt":55.77428},
{"btsCode":"BMNBG08","btsName":"Merkuta_Bazar","btsLatitude":23.8978814,"btsLongitude":91.0256778,"btsAltitudeFt":55.77428},
{"btsCode":"BMNBG09","btsName":"Nabipur","btsLatitude":23.9045561,"btsLongitude":90.9513439,"btsAltitudeFt":55.77428},
{"btsCode":"BMNBG09","btsName":"Nabipur","btsLatitude":23.9045561,"btsLongitude":90.9513439,"btsAltitudeFt":55.77428},
{"btsCode":"BMNBG09","btsName":"Nabipur","btsLatitude":23.9045561,"btsLongitude":90.9513439,"btsAltitudeFt":55.77428},
{"btsCode":"BMNBG10","btsName":"Nobinagar2","btsLatitude":23.86892,"btsLongitude":90.97478,"btsAltitudeFt":55.77428},
{"btsCode":"BMNBG10","btsName":"Nobinagar2","btsLatitude":23.86892,"btsLongitude":90.97478,"btsAltitudeFt":55.77428},
{"btsCode":"BMNBG11","btsName":"Rasullabad2","btsLatitude":23.8294911,"btsLongitude":90.9356747,"btsAltitudeFt":55.77428},
{"btsCode":"BMNBG11","btsName":"Rasullabad2","btsLatitude":23.8294911,"btsLongitude":90.9356747,"btsAltitudeFt":55.77428},
{"btsCode":"BMNBG12","btsName":"Beergaon 25m land","btsLatitude":23.95051,"btsLongitude":90.97544,"btsAltitudeFt":55.77428},
{"btsCode":"BMNBG12","btsName":"Beergaon 25m land","btsLatitude":23.95051,"btsLongitude":90.97544,"btsAltitudeFt":55.77428},
{"btsCode":"BMNBG13","btsName":"Borail Bazar 25m","btsLatitude":23.96511,"btsLongitude":91.01931,"btsAltitudeFt":55.77428},
{"btsCode":"BMNBG13","btsName":"Borail Bazar 25m","btsLatitude":23.96511,"btsLongitude":91.01931,"btsAltitudeFt":55.77428},
{"btsCode":"BMNBG14","btsName":"Krishnanagar_GP","btsLatitude":23.93892,"btsLongitude":91.01085,"btsAltitudeFt":55.77428},
{"btsCode":"BMNBG14","btsName":"Krishnanagar_GP","btsLatitude":23.93892,"btsLongitude":91.01085,"btsAltitudeFt":55.77428},
{"btsCode":"BMNBG15","btsName":"Shibpur2_25m","btsLatitude":23.8668,"btsLongitude":91.03349,"btsAltitudeFt":55.77428},
{"btsCode":"BMNBG16","btsName":"Ratanpur_25m","btsLatitude":23.7906389,"btsLongitude":90.9194167,"btsAltitudeFt":55.77428},
{"btsCode":"BMNBG16","btsName":"Ratanpur_25m","btsLatitude":23.7906389,"btsLongitude":90.9194167,"btsAltitudeFt":55.77428},
{"btsCode":"BMNBG17","btsName":"Dosmuja25m","btsLatitude":23.8048611,"btsLongitude":90.9599722,"btsAltitudeFt":55.77428},
{"btsCode":"BMNBG17","btsName":"Dosmuja25m","btsLatitude":23.8048611,"btsLongitude":90.9599722,"btsAltitudeFt":55.77428},
{"btsCode":"BMNBG18","btsName":"Borikandi 25m","btsLatitude":23.8571111,"btsLongitude":90.8730556,"btsAltitudeFt":55.77428},
{"btsCode":"BMNBG18","btsName":"Borikandi 25m","btsLatitude":23.8571111,"btsLongitude":90.8730556,"btsAltitudeFt":55.77428},
{"btsCode":"BMNBG19","btsName":"Shyamgram_GP","btsLatitude":23.8551667,"btsLongitude":90.9011389,"btsAltitudeFt":55.77428},
{"btsCode":"BMNBG19","btsName":"Shyamgram_GP","btsLatitude":23.8551667,"btsLongitude":90.9011389,"btsAltitudeFt":55.77428},
{"btsCode":"BMNBG20","btsName":"Gopalpur_BBaria_GP","btsLatitude":23.86048,"btsLongitude":90.94257,"btsAltitudeFt":55.77428},
{"btsCode":"BMNBG21","btsName":"Sitarampur Bazar","btsLatitude":23.912,"btsLongitude":90.9841,"btsAltitudeFt":55.77428},
{"btsCode":"BMNBG22","btsName":"Alamnagar","btsLatitude":23.888,"btsLongitude":90.9566,"btsAltitudeFt":55.77428},
{"btsCode":"BMNBG23","btsName":"Laur Fatehpur_BL","btsLatitude":23.81178,"btsLongitude":91.00158,"btsAltitudeFt":55.77428},
{"btsCode":"BMNBG23","btsName":"Laur Fatehpur_BL","btsLatitude":23.81178,"btsLongitude":91.00158,"btsAltitudeFt":55.77428},
{"btsCode":"BMNBG24","btsName":"Kaitola_BL","btsLatitude":23.81264,"btsLongitude":91.06555,"btsAltitudeFt":55.77428},
{"btsCode":"BMNBG25","btsName":"Natghar_BL","btsLatitude":23.89946,"btsLongitude":91.06462,"btsAltitudeFt":55.77428},
{"btsCode":"BMNBG26","btsName":"Ibrahimpur_GP","btsLatitude":23.85125,"btsLongitude":90.97074,"btsAltitudeFt":55.77428},
{"btsCode":"BMNNG01","btsName":"Nasirnagar","btsLatitude":24.1983,"btsLongitude":91.1953,"btsAltitudeFt":55.77428},
{"btsCode":"BMNNG01","btsName":"Nasirnagar","btsLatitude":24.1983,"btsLongitude":91.1953,"btsAltitudeFt":55.77428},
{"btsCode":"BMNNG02","btsName":"Horinber","btsLatitude":24.1152213,"btsLongitude":91.2571448,"btsAltitudeFt":55.77428},
{"btsCode":"BMNNG03","btsName":"Chatalpar","btsLatitude":24.21092,"btsLongitude":91.07846,"btsAltitudeFt":55.77428},
{"btsCode":"BMNNG04","btsName":"Fandauk","btsLatitude":24.23041,"btsLongitude":91.24281,"btsAltitudeFt":55.77428},
{"btsCode":"BMNNG05","btsName":"Kunda 25m land","btsLatitude":24.1535278,"btsLongitude":91.1515556,"btsAltitudeFt":55.77428},
{"btsCode":"BMNNG05","btsName":"Kunda 25m land","btsLatitude":24.1535278,"btsLongitude":91.1515556,"btsAltitudeFt":55.77428},
{"btsCode":"BMNNG06","btsName":"khandura_25mLand","btsLatitude":24.1964,"btsLongitude":91.3054,"btsAltitudeFt":55.77428},
{"btsCode":"BMNNG08","btsName":"Guniak_GP","btsLatitude":24.150722,"btsLongitude":91.257306,"btsAltitudeFt":55.77428},
{"btsCode":"BMNNG09","btsName":"Dantmandal_GP","btsLatitude":24.17394,"btsLongitude":91.17104,"btsAltitudeFt":55.77428},
{"btsCode":"BMNNG10","btsName":"Gokrana Bazar_GP","btsLatitude":24.1373,"btsLongitude":91.1996,"btsAltitudeFt":55.77428},
{"btsCode":"BMNNG11","btsName":"Volakut Bazar_BL","btsLatitude":24.20387,"btsLongitude":91.13881,"btsAltitudeFt":55.77428},
{"btsCode":"BMNNG13","btsName":"Boronagar,Chatalpar_Reloc","btsLatitude":24.19103,"btsLongitude":91.0516,"btsAltitudeFt":55.77428},
{"btsCode":"BMSDR02","btsName":"Station Road BB_Reloc","btsLatitude":23.9685,"btsLongitude":91.11006,"btsAltitudeFt":55.77428},
{"btsCode":"BMSDR02","btsName":"Station Road BB_Reloc","btsLatitude":23.9685,"btsLongitude":91.11006,"btsAltitudeFt":55.77428},
{"btsCode":"BMSDR02","btsName":"Station Road BB_Reloc","btsLatitude":23.9685,"btsLongitude":91.11006,"btsAltitudeFt":55.77428},
{"btsCode":"BMSDR03","btsName":"Bishwa_road_mor","btsLatitude":24.05037,"btsLongitude":91.11399,"btsAltitudeFt":55.77428},
{"btsCode":"BMSDR03","btsName":"Bishwa_road_mor","btsLatitude":24.05037,"btsLongitude":91.11399,"btsAltitudeFt":55.77428},
{"btsCode":"BMSDR04","btsName":"Bhudanti_Backbone","btsLatitude":24.05994,"btsLongitude":91.24786,"btsAltitudeFt":55.77428},
{"btsCode":"BMSDR05","btsName":"Chandura","btsLatitude":24.04577,"btsLongitude":91.23186,"btsAltitudeFt":55.77428},
{"btsCode":"BMSDR06","btsName":"Aulia_Bazar","btsLatitude":23.9713,"btsLongitude":91.2603,"btsAltitudeFt":55.77428},
{"btsCode":"BMSDR06","btsName":"Aulia_Bazar","btsLatitude":23.9713,"btsLongitude":91.2603,"btsAltitudeFt":55.77428},
{"btsCode":"BMSDR07","btsName":"Chinair","btsLatitude":23.8973844,"btsLongitude":91.1628114,"btsAltitudeFt":55.77428},
{"btsCode":"BMSDR07","btsName":"Chinair","btsLatitude":23.8973844,"btsLongitude":91.1628114,"btsAltitudeFt":55.77428},
{"btsCode":"BMSDR08","btsName":"Champaknagar","btsLatitude":23.9657,"btsLongitude":91.214,"btsAltitudeFt":55.77428},
{"btsCode":"BMSDR09","btsName":"Gokurnaghat","btsLatitude":23.95406,"btsLongitude":91.08308,"btsAltitudeFt":55.77428},
{"btsCode":"BMSDR09","btsName":"Gokurnaghat","btsLatitude":23.95406,"btsLongitude":91.08308,"btsAltitudeFt":55.77428},
{"btsCode":"BMSDR10","btsName":"Kawtoli","btsLatitude":23.95819,"btsLongitude":91.11457,"btsAltitudeFt":55.77428},
{"btsCode":"BMSDR10","btsName":"Kawtoli","btsLatitude":23.95819,"btsLongitude":91.11457,"btsAltitudeFt":55.77428},
{"btsCode":"BMSDR10","btsName":"Kawtoli","btsLatitude":23.95819,"btsLongitude":91.11457,"btsAltitudeFt":55.77428},
{"btsCode":"BMSDR11","btsName":"West_Medda","btsLatitude":23.98746,"btsLongitude":91.10259,"btsAltitudeFt":55.77428},
{"btsCode":"BMSDR11","btsName":"West_Medda","btsLatitude":23.98746,"btsLongitude":91.10259,"btsAltitudeFt":55.77428},
{"btsCode":"BMSDR11","btsName":"West_Medda","btsLatitude":23.98746,"btsLongitude":91.10259,"btsAltitudeFt":55.77428},
{"btsCode":"BMSDR12","btsName":"Moddhopara2","btsLatitude":23.97367,"btsLongitude":91.1017,"btsAltitudeFt":55.77428},
{"btsCode":"BMSDR12","btsName":"Moddhopara2","btsLatitude":23.97367,"btsLongitude":91.1017,"btsAltitudeFt":55.77428},
{"btsCode":"BMSDR12","btsName":"Moddhopara2","btsLatitude":23.97367,"btsLongitude":91.1017,"btsAltitudeFt":55.77428},
{"btsCode":"BMSDR13","btsName":"Suhilpur","btsLatitude":24.02106,"btsLongitude":91.11029,"btsAltitudeFt":55.77428},
{"btsCode":"BMSDR14","btsName":"Sultanpur","btsLatitude":23.8912457,"btsLongitude":91.1262018,"btsAltitudeFt":55.77428},
{"btsCode":"BMSDR15","btsName":"Atla","btsLatitude":23.92339,"btsLongitude":91.14725,"btsAltitudeFt":55.77428},
{"btsCode":"BMSDR15","btsName":"Atla","btsLatitude":23.92339,"btsLongitude":91.14725,"btsAltitudeFt":55.77428},
{"btsCode":"BMSDR16","btsName":"Horon","btsLatitude":23.99129,"btsLongitude":91.05029,"btsAltitudeFt":55.77428},
{"btsCode":"BMSDR17","btsName":"Norshingshar","btsLatitude":23.97046,"btsLongitude":91.0641,"btsAltitudeFt":55.77428},
{"btsCode":"BMSDR18","btsName":"Ramarail","btsLatitude":23.93684,"btsLongitude":91.10561,"btsAltitudeFt":55.77428},
{"btsCode":"BMSDR18","btsName":"Ramarail","btsLatitude":23.93684,"btsLongitude":91.10561,"btsAltitudeFt":55.77428},
{"btsCode":"BMSDR19","btsName":"Ahoranda","btsLatitude":23.8695,"btsLongitude":91.1483889,"btsAltitudeFt":55.77428},
{"btsCode":"BMSDR19","btsName":"Ahoranda","btsLatitude":23.8695,"btsLongitude":91.1483889,"btsAltitudeFt":55.77428},
{"btsCode":"BMSDR20","btsName":"Shimrailkandi","btsLatitude":23.96973,"btsLongitude":91.11701,"btsAltitudeFt":55.77428},
{"btsCode":"BMSDR20","btsName":"Shimrailkandi","btsLatitude":23.96973,"btsLongitude":91.11701,"btsAltitudeFt":55.77428},
{"btsCode":"BMSDR20","btsName":"Shimrailkandi","btsLatitude":23.96973,"btsLongitude":91.11701,"btsAltitudeFt":55.77428},
{"btsCode":"BMSDR21","btsName":"Arial Bazar 32m Land","btsLatitude":23.9999,"btsLongitude":91.2267,"btsAltitudeFt":55.77428},
{"btsCode":"BMSDR22","btsName":"Noagaon Bazar","btsLatitude":23.943,"btsLongitude":91.2117,"btsAltitudeFt":55.77428},
{"btsCode":"BMSDR22","btsName":"Noagaon Bazar","btsLatitude":23.943,"btsLongitude":91.2117,"btsAltitudeFt":55.77428},
{"btsCode":"BMSDR23","btsName":"Senda Bazar_GP","btsLatitude":23.91168,"btsLongitude":91.10216,"btsAltitudeFt":55.77428},
{"btsCode":"BMSDR24","btsName":"Majlispur","btsLatitude":24.03384,"btsLongitude":91.14528,"btsAltitudeFt":55.77428},
{"btsCode":"BMSDR25","btsName":"Char Islampur_GP","btsLatitude":23.99702,"btsLongitude":91.17679,"btsAltitudeFt":55.77428},
{"btsCode":"BMSDR27","btsName":"Oshtogram bazar_GP","btsLatitude":24.01784,"btsLongitude":91.0836,"btsAltitudeFt":55.77428},
{"btsCode":"BMSDR28","btsName":"Paikpara","btsLatitude":23.98357,"btsLongitude":91.11189,"btsAltitudeFt":55.77428},
{"btsCode":"BMSDR28","btsName":"Paikpara","btsLatitude":23.98357,"btsLongitude":91.11189,"btsAltitudeFt":55.77428},
{"btsCode":"BMSDR31","btsName":"Bhatpara Mor","btsLatitude":23.91251,"btsLongitude":91.13811,"btsAltitudeFt":55.77428},
{"btsCode":"BMSDR32","btsName":"Chapuir Bazar","btsLatitude":23.90588,"btsLongitude":91.17319,"btsAltitudeFt":55.77428},
{"btsCode":"BMSDR33","btsName":"Ghatura Goutompara","btsLatitude":24.00453,"btsLongitude":91.10623,"btsAltitudeFt":55.77428},
{"btsCode":"BMSDR34","btsName":"Ulchapara Bazar_BL","btsLatitude":23.949,"btsLongitude":91.0998,"btsAltitudeFt":55.77428},
{"btsCode":"BMSDR35","btsName":"Bhadughor_BL","btsLatitude":23.9493,"btsLongitude":91.1273,"btsAltitudeFt":55.77428},
{"btsCode":"BMSDR36","btsName":"Amtoly Bazar","btsLatitude":24.0294,"btsLongitude":91.22891,"btsAltitudeFt":55.77428},
{"btsCode":"BMSDR37","btsName":"Khatinga_GP","btsLatitude":23.985833,"btsLongitude":91.2725278,"btsAltitudeFt":55.77428},
{"btsCode":"BMSDR41","btsName":"Moral_College Para","btsLatitude":23.9655,"btsLongitude":91.1143,"btsAltitudeFt":55.77428},
{"btsCode":"BMSDR42","btsName":"Court_Road_Relocation","btsLatitude":23.97458,"btsLongitude":91.11095,"btsAltitudeFt":55.77428},
{"btsCode":"BMSDR42","btsName":"Court_Road Relocation","btsLatitude":23.97458,"btsLongitude":91.11095,"btsAltitudeFt":55.77428},
{"btsCode":"BMSDR42","btsName":"Court_Road_Relocation","btsLatitude":23.97458,"btsLongitude":91.11095,"btsAltitudeFt":55.77428},
{"btsCode":"BMSDR42","btsName":"Court_Road Relocation","btsLatitude":23.97458,"btsLongitude":91.11095,"btsAltitudeFt":55.77428},
{"btsCode":"BMSDR42","btsName":"Court_Road Relocation","btsLatitude":23.97458,"btsLongitude":91.11095,"btsAltitudeFt":55.77428},
{"btsCode":"BMSRL01","btsName":"Sarail","btsLatitude":24.07286,"btsLongitude":91.11791,"btsAltitudeFt":55.77428},
{"btsCode":"BMSRL01","btsName":"Sarail","btsLatitude":24.07286,"btsLongitude":91.11791,"btsAltitudeFt":55.77428},
{"btsCode":"BMSRL01","btsName":"Sarail","btsLatitude":24.07286,"btsLongitude":91.11791,"btsAltitudeFt":55.77428},
{"btsCode":"BMSRL02","btsName":"Shahbazpur","btsLatitude":24.0514,"btsLongitude":91.17636,"btsAltitudeFt":55.77428},
{"btsCode":"BMSRL02","btsName":"Shahbazpur","btsLatitude":24.0514,"btsLongitude":91.17636,"btsAltitudeFt":55.77428},
{"btsCode":"BMSRL03","btsName":"Chunta","btsLatitude":24.11532,"btsLongitude":91.08646,"btsAltitudeFt":55.77428},
{"btsCode":"BMSRL04","btsName":"Orail__Sorail","btsLatitude":24.1603401,"btsLongitude":91.0430112,"btsAltitudeFt":55.77428},
{"btsCode":"BMSRL05","btsName":"Shahabazpur_GP","btsLatitude":24.07001,"btsLongitude":91.18032,"btsAltitudeFt":55.77428},
{"btsCode":"BMSRL07","btsName":"Kalikocco Bazar_BL","btsLatitude":24.09442,"btsLongitude":91.11985,"btsAltitudeFt":55.77428},
{"btsCode":"BMSRL07","btsName":"Kalikocco Bazar_BL","btsLatitude":24.09442,"btsLongitude":91.11985,"btsAltitudeFt":55.77428},
{"btsCode":"BMSRL08","btsName":"Bertola Bazar_GF","btsLatitude":24.0484,"btsLongitude":91.07521,"btsAltitudeFt":55.77428},
{"btsCode":"BODNT06","btsName":"Hashukhali_GP","btsLatitude":24.7266111,"btsLongitude":89.5121944,"btsAltitudeFt":55.77428},
{"btsCode":"BOADM01","btsName":"Adamdighi","btsLatitude":24.8221352,"btsLongitude":89.0403202,"btsAltitudeFt":55.77428},
{"btsCode":"BOADM02","btsName":"Santahar","btsLatitude":24.8087149,"btsLongitude":88.9871554,"btsAltitudeFt":55.77428},
{"btsCode":"BOADM02","btsName":"Santahar","btsLatitude":24.8087149,"btsLongitude":88.9871554,"btsAltitudeFt":55.77428},
{"btsCode":"BOADM02","btsName":"Santahar","btsLatitude":24.8087149,"btsLongitude":88.9871554,"btsAltitudeFt":55.77428},
{"btsCode":"BOADM03","btsName":"Kundagram","btsLatitude":24.79825,"btsLongitude":89.1335278,"btsAltitudeFt":55.77428},
{"btsCode":"BOADM06","btsName":"Muroil Bazar_32mLand","btsLatitude":24.8341944,"btsLongitude":89.0735833,"btsAltitudeFt":55.77428},
{"btsCode":"BOADM07","btsName":"Shibbati Bazar_GP","btsLatitude":24.8013333,"btsLongitude":89.1053056,"btsAltitudeFt":55.77428},
{"btsCode":"BOADM08","btsName":"Chapapur_Reloc","btsLatitude":24.74976,"btsLongitude":89.13657,"btsAltitudeFt":55.77428},
{"btsCode":"BOADM09","btsName":"Padma Bazar_Reloc","btsLatitude":24.78235,"btsLongitude":89.01752,"btsAltitudeFt":55.77428},
{"btsCode":"BODNT01","btsName":"Dhunat","btsLatitude":24.6832069,"btsLongitude":89.5403628,"btsAltitudeFt":55.77428},
{"btsCode":"CMBRR30","btsName":"Mugji_GP","btsLatitude":23.4057,"btsLongitude":91.0558,"btsAltitudeFt":55.77428},
{"btsCode":"BODNT02","btsName":"Chaukibari","btsLatitude":24.6145833,"btsLongitude":89.5364167,"btsAltitudeFt":55.77428},
{"btsCode":"BODNT03","btsName":"Goshaibari_32mLand","btsLatitude":24.7393611,"btsLongitude":89.6038333,"btsAltitudeFt":55.77428},
{"btsCode":"BODNT05","btsName":"Mothurapur Bazar_GP","btsLatitude":24.594639,"btsLongitude":89.546833,"btsAltitudeFt":55.77428},
{"btsCode":"BODNT08","btsName":"Sunahata_Reloc","btsLatitude":24.7546,"btsLongitude":89.52548,"btsAltitudeFt":55.77428},
{"btsCode":"BODPC01","btsName":"Dupchachia","btsLatitude":24.8740784,"btsLongitude":89.1745091,"btsAltitudeFt":55.77428},
{"btsCode":"BODPC01","btsName":"Dupchachia","btsLatitude":24.8740784,"btsLongitude":89.1745091,"btsAltitudeFt":55.77428},
{"btsCode":"BODPC02","btsName":"Talora","btsLatitude":24.8185,"btsLongitude":89.1743611,"btsAltitudeFt":55.77428},
{"btsCode":"BODPC03","btsName":"Shaharpukur","btsLatitude":24.8427222,"btsLongitude":89.1023889,"btsAltitudeFt":55.77428},
{"btsCode":"BODPC04","btsName":"ZiaNagar2, Dupchachia_New_GP","btsLatitude":24.9396667,"btsLongitude":89.1117222,"btsAltitudeFt":55.77428},
{"btsCode":"BODPC06","btsName":"Chowmohoni_32m Land","btsLatitude":24.85575,"btsLongitude":89.133,"btsAltitudeFt":55.77428},
{"btsCode":"BODPC07","btsName":"Mostofapur_Reloc","btsLatitude":24.9254167,"btsLongitude":89.1756111,"btsAltitudeFt":55.77428},
{"btsCode":"BOGBT01","btsName":"Gabtoli","btsLatitude":24.8799901,"btsLongitude":89.4509435,"btsAltitudeFt":55.77428},
{"btsCode":"BOGBT02","btsName":"Bagbari","btsLatitude":24.7831944,"btsLongitude":89.4780556,"btsAltitudeFt":55.77428},
{"btsCode":"BOGBT03","btsName":"Golabari Hat","btsLatitude":24.8331944,"btsLongitude":89.4718333,"btsAltitudeFt":55.77428},
{"btsCode":"BOGBT04","btsName":"Nangulhat_32m Land","btsLatitude":25.0100278,"btsLongitude":89.42775,"btsAltitudeFt":55.77428},
{"btsCode":"BOGBT08","btsName":"Kagail Bazar_32m Land","btsLatitude":24.985361,"btsLongitude":89.399194,"btsAltitudeFt":55.77428},
{"btsCode":"BOGBT11","btsName":"Sonaroy Bazar_Reloc","btsLatitude":24.94752,"btsLongitude":89.4452,"btsAltitudeFt":55.77428},
{"btsCode":"BOGBT12","btsName":"Toronirhat_Reloc","btsLatitude":24.80949,"btsLongitude":89.5184,"btsAltitudeFt":55.77428},
{"btsCode":"BOGBT13","btsName":"Rameshorpur_Reloc","btsLatitude":24.9293056,"btsLongitude":89.4190278,"btsAltitudeFt":55.77428},
{"btsCode":"BOKHL01","btsName":"Kahalu","btsLatitude":24.8323597,"btsLongitude":89.2688133,"btsAltitudeFt":55.77428},
{"btsCode":"BOKHL02","btsName":"Bibirpukur","btsLatitude":24.8648889,"btsLongitude":89.2463889,"btsAltitudeFt":55.77428},
{"btsCode":"BOKHL03","btsName":"Jamgram_42mLand","btsLatitude":24.7647222,"btsLongitude":89.2455556,"btsAltitudeFt":55.77428},
{"btsCode":"BOKHL03","btsName":"Jamgram_42mLand","btsLatitude":24.7647222,"btsLongitude":89.2455556,"btsAltitudeFt":55.77428},
{"btsCode":"BOKHL04","btsName":"Depuil 55m Land","btsLatitude":24.8676667,"btsLongitude":89.2091667,"btsAltitudeFt":55.77428},
{"btsCode":"BOKHL09","btsName":"Durgapur Bazar_GP","btsLatitude":24.8009167,"btsLongitude":89.2165556,"btsAltitudeFt":55.77428},
{"btsCode":"BOKHL10","btsName":"Jatrasol_Urail_Airtel","btsLatitude":24.86092,"btsLongitude":89.30114,"btsAltitudeFt":55.77428},
{"btsCode":"BOKHL11","btsName":"Maloncho Bazar_Reloc","btsLatitude":24.79181,"btsLongitude":89.27499,"btsAltitudeFt":55.77428},
{"btsCode":"BOKHL12","btsName":"Pilkunja_Reloc","btsLatitude":24.9011111,"btsLongitude":89.2413333,"btsAltitudeFt":55.77428},
{"btsCode":"BONND01","btsName":"Nondigram","btsLatitude":24.6459068,"btsLongitude":89.2552626,"btsAltitudeFt":55.77428},
{"btsCode":"BONND02","btsName":"Ranabagha 55m land","btsLatitude":24.5886274,"btsLongitude":89.2282286,"btsAltitudeFt":55.77428},
{"btsCode":"BONND04","btsName":"Hatkoroi_55mLand","btsLatitude":24.722139,"btsLongitude":89.212172,"btsAltitudeFt":55.77428},
{"btsCode":"BONND06","btsName":"Dass Gram Bazar_GP","btsLatitude":24.6373333,"btsLongitude":89.2920278,"btsAltitudeFt":55.77428},
{"btsCode":"BONND07","btsName":"Thalta Hat_GP","btsLatitude":24.7636111,"btsLongitude":89.2050833,"btsAltitudeFt":55.77428},
{"btsCode":"BONND08","btsName":"Kundar Hat_32mLand","btsLatitude":24.6794722,"btsLongitude":89.2825278,"btsAltitudeFt":55.77428},
{"btsCode":"BONND10","btsName":"Shimla Boishaki Bazar_GP","btsLatitude":24.6557778,"btsLongitude":89.2004167,"btsAltitudeFt":55.77428},
{"btsCode":"BONND12","btsName":"Bijrul Bazar_Bhatgram","btsLatitude":24.71512,"btsLongitude":89.25846,"btsAltitudeFt":55.77428},
{"btsCode":"BONND13","btsName":"Chowmatha Bazar_Reloc","btsLatitude":24.78533,"btsLongitude":89.1796,"btsAltitudeFt":55.77428},
{"btsCode":"BONND14","btsName":"Pundit Pukur_Reloc","btsLatitude":24.6895556,"btsLongitude":89.1835833,"btsAltitudeFt":55.77428},
{"btsCode":"BOSBG01","btsName":"Shibganj, Bogra, New_Airtel","btsLatitude":25.00357,"btsLongitude":89.32326,"btsAltitudeFt":55.77428},
{"btsCode":"BOSBG01","btsName":"Shibganj, Bogra, New_Airtel","btsLatitude":25.00357,"btsLongitude":89.32326,"btsAltitudeFt":55.77428},
{"btsCode":"BOSBG02","btsName":"Mokamtola_reloc_BL","btsLatitude":25.01346,"btsLongitude":89.37409,"btsAltitudeFt":55.77428},
{"btsCode":"BOSBG02","btsName":"Mokamtola_reloc_BL","btsLatitude":25.01346,"btsLongitude":89.37409,"btsAltitudeFt":55.77428},
{"btsCode":"BOSBG02","btsName":"Mokamtola_reloc_BL","btsLatitude":25.01346,"btsLongitude":89.37409,"btsAltitudeFt":55.77428},
{"btsCode":"BOSBG03","btsName":"Mohasthangarh","btsLatitude":24.9510249,"btsLongitude":89.3505937,"btsAltitudeFt":55.77428},
{"btsCode":"BOSBG03","btsName":"Mohasthangarh","btsLatitude":24.9510249,"btsLongitude":89.3505937,"btsAltitudeFt":55.77428},
{"btsCode":"BOSBG04","btsName":"Pirob","btsLatitude":24.978,"btsLongitude":89.22175,"btsAltitudeFt":55.77428},
{"btsCode":"BOSBG05","btsName":"Kichok Bazar","btsLatitude":25.0378889,"btsLongitude":89.2729444,"btsAltitudeFt":55.77428},
{"btsCode":"BOSBG06","btsName":"Boriahat_32mLand","btsLatitude":25.0540278,"btsLongitude":89.4472778,"btsAltitudeFt":55.77428},
{"btsCode":"BOSBG07","btsName":"Rohobal Bondor 32m land","btsLatitude":25.0570833,"btsLongitude":89.3693055,"btsAltitudeFt":55.77428},
{"btsCode":"BOSBG08","btsName":"Daridhoho Bazar_GP","btsLatitude":25.0961111,"btsLongitude":89.33375,"btsAltitudeFt":55.77428},
{"btsCode":"BOSBG10","btsName":"Shongshar Dighi Bazar_GP","btsLatitude":24.9922222,"btsLongitude":89.2819167,"btsAltitudeFt":55.77428},
{"btsCode":"BOSBG11","btsName":"Atmul Bazar_GP","btsLatitude":25.008722,"btsLongitude":89.224389,"btsAltitudeFt":55.77428},
{"btsCode":"BOSBG13","btsName":"Buriganj_GP","btsLatitude":24.9591111,"btsLongitude":89.2698611,"btsAltitudeFt":55.77428},
{"btsCode":"BOSBG14","btsName":"Gujia Bazar_Reloc","btsLatitude":25.0501667,"btsLongitude":89.3250278,"btsAltitudeFt":55.77428},
{"btsCode":"BOSBG14","btsName":"Gujia Bazar_Reloc","btsLatitude":25.0501667,"btsLongitude":89.3250278,"btsAltitudeFt":55.77428},
{"btsCode":"BOSDR01","btsName":"ABPlaza","btsLatitude":24.849464,"btsLongitude":89.3735371,"btsAltitudeFt":55.77428},
{"btsCode":"BOSDR01","btsName":"ABPlaza","btsLatitude":24.849464,"btsLongitude":89.3735371,"btsAltitudeFt":55.77428},
{"btsCode":"BOSDR01","btsName":"ABPlaza","btsLatitude":24.849464,"btsLongitude":89.3735371,"btsAltitudeFt":55.77428},
{"btsCode":"BOSDR02","btsName":"Charmatha","btsLatitude":24.8444683,"btsLongitude":89.3476777,"btsAltitudeFt":55.77428},
{"btsCode":"BOSDR02","btsName":"Charmatha","btsLatitude":24.8444683,"btsLongitude":89.3476777,"btsAltitudeFt":55.77428},
{"btsCode":"BOSDR02","btsName":"Charmatha","btsLatitude":24.8444683,"btsLongitude":89.3476777,"btsAltitudeFt":55.77428},
{"btsCode":"BOSDR03","btsName":"Fulbari, Bogra","btsLatitude":24.8729404,"btsLongitude":89.3693719,"btsAltitudeFt":55.77428},
{"btsCode":"BOSDR03","btsName":"Fulbari, Bogra","btsLatitude":24.8729404,"btsLongitude":89.3693719,"btsAltitudeFt":55.77428},
{"btsCode":"BOSDR04","btsName":"Sutrapur, Bogra","btsLatitude":24.8424408,"btsLongitude":89.3740384,"btsAltitudeFt":55.77428},
{"btsCode":"BOSDR04","btsName":"Sutrapur, Bogra","btsLatitude":24.8424408,"btsLongitude":89.3740384,"btsAltitudeFt":55.77428},
{"btsCode":"BOSDR05","btsName":"Tinmatha","btsLatitude":24.8893219,"btsLongitude":89.3605576,"btsAltitudeFt":55.77428},
{"btsCode":"BOSDR05","btsName":"Tinmatha","btsLatitude":24.8893219,"btsLongitude":89.3605576,"btsAltitudeFt":55.77428},
{"btsCode":"BOSDR06","btsName":"Bogra Upashahar","btsLatitude":24.865657,"btsLongitude":89.3595606,"btsAltitudeFt":55.77428},
{"btsCode":"BOSDR06","btsName":"Bogra Upashahar","btsLatitude":24.865657,"btsLongitude":89.3595606,"btsAltitudeFt":55.77428},
{"btsCode":"BOSDR07","btsName":"Sub Gram","btsLatitude":24.8601564,"btsLongitude":89.4012803,"btsAltitudeFt":55.77428},
{"btsCode":"BOSDR07","btsName":"Sub Gram","btsLatitude":24.8601564,"btsLongitude":89.4012803,"btsAltitudeFt":55.77428},
{"btsCode":"BOSDR08","btsName":"Namajgarh","btsLatitude":24.8537966,"btsLongitude":89.3677269,"btsAltitudeFt":55.77428},
{"btsCode":"BOSDR08","btsName":"Namajgarh","btsLatitude":24.8537966,"btsLongitude":89.3677269,"btsAltitudeFt":55.77428},
{"btsCode":"BOSDR08","btsName":"Namajgarh","btsLatitude":24.8537966,"btsLongitude":89.3677269,"btsAltitudeFt":55.77428},
{"btsCode":"BOSDR09","btsName":"Naruli","btsLatitude":24.8531606,"btsLongitude":89.3794195,"btsAltitudeFt":55.77428},
{"btsCode":"BOSDR09","btsName":"Naruli","btsLatitude":24.8531606,"btsLongitude":89.3794195,"btsAltitudeFt":55.77428},
{"btsCode":"BOSDR10","btsName":"Bogra CC_Micro","btsLatitude":24.8443861,"btsLongitude":89.3760861,"btsAltitudeFt":55.77428},
{"btsCode":"BOSDR10","btsName":"Bogra CC_Micro","btsLatitude":24.8443861,"btsLongitude":89.3760861,"btsAltitudeFt":55.77428},
{"btsCode":"BOSDR11","btsName":"Johurul Nagar","btsLatitude":24.8492222,"btsLongitude":89.3570278,"btsAltitudeFt":55.77428},
{"btsCode":"BOSDR11","btsName":"Johurul Nagar","btsLatitude":24.8492222,"btsLongitude":89.3570278,"btsAltitudeFt":55.77428},
{"btsCode":"BOSDR11","btsName":"Johurul Nagar","btsLatitude":24.8492222,"btsLongitude":89.3570278,"btsAltitudeFt":55.77428},
{"btsCode":"BOSDR12","btsName":"Kalitala hat","btsLatitude":24.8598611,"btsLongitude":89.3727778,"btsAltitudeFt":55.77428},
{"btsCode":"BOSDR12","btsName":"Kalitala hat","btsLatitude":24.8598611,"btsLongitude":89.3727778,"btsAltitudeFt":55.77428},
{"btsCode":"BOSDR13","btsName":"Motel Century","btsLatitude":24.8591944,"btsLongitude":89.3499444,"btsAltitudeFt":55.77428},
{"btsCode":"BOSDR13","btsName":"Motel Century","btsLatitude":24.8591944,"btsLongitude":89.3499444,"btsAltitudeFt":55.77428},
{"btsCode":"BOSDR14","btsName":"Maloti Nagar","btsLatitude":24.8364722,"btsLongitude":89.3816944,"btsAltitudeFt":55.77428},
{"btsCode":"BOSDR14","btsName":"Maloti Nagar","btsLatitude":24.8364722,"btsLongitude":89.3816944,"btsAltitudeFt":55.77428},
{"btsCode":"BOSDR14","btsName":"Maloti Nagar","btsLatitude":24.8364722,"btsLongitude":89.3816944,"btsAltitudeFt":55.77428},
{"btsCode":"BOSDR15","btsName":"Thangamara","btsLatitude":24.909639,"btsLongitude":89.353199,"btsAltitudeFt":55.77428},
{"btsCode":"BOSDR15","btsName":"Thangamara","btsLatitude":24.909639,"btsLongitude":89.353199,"btsAltitudeFt":55.77428},
{"btsCode":"BOSDR16","btsName":"Tengra School","btsLatitude":24.9461111,"btsLongitude":89.3007778,"btsAltitudeFt":55.77428},
{"btsCode":"BOSDR17","btsName":"Pirgacha2","btsLatitude":24.9518056,"btsLongitude":89.4002778,"btsAltitudeFt":55.77428},
{"btsCode":"BOSDR18","btsName":"Adir gola Bazar_GP","btsLatitude":24.8420833,"btsLongitude":89.4300278,"btsAltitudeFt":55.77428},
{"btsCode":"BOSDR19","btsName":"Bogra New Market_IBS","btsLatitude":24.84987,"btsLongitude":89.37303,"btsAltitudeFt":55.77428},
{"btsCode":"BOSDR20","btsName":"Sheojgari_GP","btsLatitude":24.8435277,"btsLongitude":89.3664722,"btsAltitudeFt":55.77428},
{"btsCode":"BOSDR20","btsName":"Sheojgari_GP","btsLatitude":24.8435277,"btsLongitude":89.3664722,"btsAltitudeFt":55.77428},
{"btsCode":"BOSDR20","btsName":"Sheojgari_GP","btsLatitude":24.8435277,"btsLongitude":89.3664722,"btsAltitudeFt":55.77428},
{"btsCode":"BOSDR21","btsName":"Natai Para_BL","btsLatitude":24.84693,"btsLongitude":89.38268,"btsAltitudeFt":55.77428},
{"btsCode":"BOSDR21","btsName":"Natai Para_BL","btsLatitude":24.84693,"btsLongitude":89.38268,"btsAltitudeFt":55.77428},
{"btsCode":"BOSDR22","btsName":"Ghoradhap_GP","btsLatitude":24.91851,"btsLongitude":89.32232,"btsAltitudeFt":55.77428},
{"btsCode":"BOSDR26","btsName":"Sutrapur_Bogra2","btsLatitude":24.83796,"btsLongitude":89.36844,"btsAltitudeFt":55.77428},
{"btsCode":"BOSDR26","btsName":"Sutrapur_Bogra2","btsLatitude":24.83796,"btsLongitude":89.36844,"btsAltitudeFt":55.77428},
{"btsCode":"BOSDR27","btsName":"Bokshi Bazar_Bogra","btsLatitude":24.84129,"btsLongitude":89.37984,"btsAltitudeFt":55.77428},
{"btsCode":"BOSDR27","btsName":"Bokshi Bazar_Bogra","btsLatitude":24.84129,"btsLongitude":89.37984,"btsAltitudeFt":55.77428},
{"btsCode":"BOSJP01","btsName":"BograBTTB","btsLatitude":24.8163249,"btsLongitude":89.38059,"btsAltitudeFt":55.77428},
{"btsCode":"BOSJP01","btsName":"BograBTTB","btsLatitude":24.8163249,"btsLongitude":89.38059,"btsAltitudeFt":55.77428},
{"btsCode":"BOSJP02","btsName":"Bogra Backbone 75m","btsLatitude":24.7837676,"btsLongitude":89.3912271,"btsAltitudeFt":55.77428},
{"btsCode":"BOSJP02","btsName":"Bogra Backbone 75m","btsLatitude":24.7837676,"btsLongitude":89.3912271,"btsAltitudeFt":55.77428},
{"btsCode":"BOSJP02","btsName":"Bogra Backbone 75m","btsLatitude":24.7837676,"btsLongitude":89.3912271,"btsAltitudeFt":55.77428},
{"btsCode":"BOSJP03","btsName":"Majhira","btsLatitude":24.7559052,"btsLongitude":89.3972281,"btsAltitudeFt":55.77428},
{"btsCode":"BOSJP03","btsName":"Majhira","btsLatitude":24.7559052,"btsLongitude":89.3972281,"btsAltitudeFt":55.77428},
{"btsCode":"BOSJP03","btsName":"Majhira","btsLatitude":24.7559052,"btsLongitude":89.3972281,"btsAltitudeFt":55.77428},
{"btsCode":"BOSJP04","btsName":"Bihary Colony","btsLatitude":24.8262926,"btsLongitude":89.3776417,"btsAltitudeFt":55.77428},
{"btsCode":"BOSJP04","btsName":"Bihary Colony","btsLatitude":24.8262926,"btsLongitude":89.3776417,"btsAltitudeFt":55.77428},
{"btsCode":"BOSJP05","btsName":"Naz Garden","btsLatitude":24.8272469,"btsLongitude":89.3575322,"btsAltitudeFt":55.77428},
{"btsCode":"BOSJP05","btsName":"Naz Garden","btsLatitude":24.8272469,"btsLongitude":89.3575322,"btsAltitudeFt":55.77428},
{"btsCode":"BOSJP06","btsName":"Kaigari","btsLatitude":24.8294722,"btsLongitude":89.36575,"btsAltitudeFt":55.77428},
{"btsCode":"BOSJP06","btsName":"Kaigari","btsLatitude":24.8294722,"btsLongitude":89.36575,"btsAltitudeFt":55.77428},
{"btsCode":"BOSJP06","btsName":"Kaigari","btsLatitude":24.8294722,"btsLongitude":89.36575,"btsAltitudeFt":55.77428},
{"btsCode":"BOSJP07","btsName":"Jamadar Pukur","btsLatitude":24.7089444,"btsLongitude":89.3131667,"btsAltitudeFt":55.77428},
{"btsCode":"BOSJP07","btsName":"Jamadar Pukur","btsLatitude":24.7089444,"btsLongitude":89.3131667,"btsAltitudeFt":55.77428},
{"btsCode":"BOSJP08","btsName":"Sabrul Bazar_GP","btsLatitude":24.800305,"btsLongitude":89.323472,"btsAltitudeFt":55.77428},
{"btsCode":"BOSJP09","btsName":"Ranirhat_Shahjahanpur","btsLatitude":24.806,"btsLongitude":89.355389,"btsAltitudeFt":55.77428},
{"btsCode":"BOSJP14","btsName":"Jolshuka","btsLatitude":24.79427,"btsLongitude":89.44092,"btsAltitudeFt":55.77428},
{"btsCode":"BOSJP15","btsName":"Chandibar_Airtel","btsLatitude":24.7641,"btsLongitude":89.3453,"btsAltitudeFt":55.77428},
{"btsCode":"BOSNT01","btsName":"Sonatola","btsLatitude":25.039694,"btsLongitude":89.5008027,"btsAltitudeFt":55.77428},
{"btsCode":"BOSNT02","btsName":"College Station 25m land","btsLatitude":24.9468889,"btsLongitude":89.4933333,"btsAltitudeFt":55.77428},
{"btsCode":"BOSNT03","btsName":"Velur para Bazar_32m Land","btsLatitude":24.9870833,"btsLongitude":89.5052778,"btsAltitudeFt":55.77428},
{"btsCode":"BOSNT04","btsName":"Harinkhali Bazar_GP","btsLatitude":25.0094722,"btsLongitude":89.5338889,"btsAltitudeFt":55.77428},
{"btsCode":"BOSNT06","btsName":"Balua Bazar_GP","btsLatitude":25.03,"btsLongitude":89.4675,"btsAltitudeFt":55.77428},
{"btsCode":"BOSNT07","btsName":"Korpur Bazar_Koalikandi","btsLatitude":24.99197,"btsLongitude":89.4698,"btsAltitudeFt":55.77428},
{"btsCode":"BOSRK01","btsName":"Sariakandi","btsLatitude":24.8875731,"btsLongitude":89.5660571,"btsAltitudeFt":55.77428},
{"btsCode":"BOSRK02","btsName":"Hatfulbari land 55m","btsLatitude":24.8780556,"btsLongitude":89.5331111,"btsAltitudeFt":55.77428},
{"btsCode":"BOSRK02","btsName":"Hatfulbari land 55m","btsLatitude":24.8780556,"btsLongitude":89.5331111,"btsAltitudeFt":55.77428},
{"btsCode":"BOSRK03","btsName":"Kutubpur_GP","btsLatitude":24.808833,"btsLongitude":89.585583,"btsAltitudeFt":55.77428},
{"btsCode":"BOSRK04","btsName":"Debdanga_GP","btsLatitude":24.837917,"btsLongitude":89.585333,"btsAltitudeFt":55.77428},
{"btsCode":"BOSRK05","btsName":"Naruchi Bazar_GP","btsLatitude":24.9105,"btsLongitude":89.5426389,"btsAltitudeFt":55.77428},
{"btsCode":"BOSRP01","btsName":"ChankaBazar25m","btsLatitude":24.6101111,"btsLongitude":89.4403333,"btsAltitudeFt":55.77428},
{"btsCode":"BOSRP02","btsName":"Sherpur, Bogra","btsLatitude":24.6689356,"btsLongitude":89.4176461,"btsAltitudeFt":55.77428},
{"btsCode":"BOSRP02","btsName":"Sherpur, Bogra","btsLatitude":24.6689356,"btsLongitude":89.4176461,"btsAltitudeFt":55.77428},
{"btsCode":"BOSRP02","btsName":"Sherpur, Bogra","btsLatitude":24.6689356,"btsLongitude":89.4176461,"btsAltitudeFt":55.77428},
{"btsCode":"BOSRP03","btsName":"Dash Mile","btsLatitude":24.7058747,"btsLongitude":89.3970009,"btsAltitudeFt":55.77428},
{"btsCode":"BOSRP03","btsName":"Dash Mile","btsLatitude":24.7058747,"btsLongitude":89.3970009,"btsAltitudeFt":55.77428},
{"btsCode":"BOSRP04","btsName":"Sherua Bazar","btsLatitude":24.6543644,"btsLongitude":89.4241909,"btsAltitudeFt":55.77428},
{"btsCode":"BOSRP04","btsName":"Sherua Bazar","btsLatitude":24.6543644,"btsLongitude":89.4241909,"btsAltitudeFt":55.77428},
{"btsCode":"BOSRP05","btsName":"Ranirhat 25m Land, Bogra","btsLatitude":24.5602194,"btsLongitude":89.3611667,"btsAltitudeFt":55.77428},
{"btsCode":"BOSRP06","btsName":"Belghoria bazar","btsLatitude":24.6577778,"btsLongitude":89.3441667,"btsAltitudeFt":55.77428},
{"btsCode":"BOSRP07","btsName":"Simabari_GP","btsLatitude":24.5726111,"btsLongitude":89.4685278,"btsAltitudeFt":55.77428},
{"btsCode":"BOSRP14","btsName":"Jamail Bazar_Reloc","btsLatitude":24.61154,"btsLongitude":89.35867,"btsAltitudeFt":55.77428},
{"btsCode":"BRAMT01","btsName":"Amtoli","btsLatitude":22.1390293,"btsLongitude":90.2290101,"btsAltitudeFt":55.77428},
{"btsCode":"BRAMT01","btsName":"Amtoli","btsLatitude":22.1390293,"btsLongitude":90.2290101,"btsAltitudeFt":55.77428},
{"btsCode":"BRAMT02","btsName":"Nilganj 55m Land","btsLatitude":22.0503333,"btsLongitude":90.2388889,"btsAltitudeFt":55.77428},
{"btsCode":"BRAMT03","btsName":"Shakharia land 55m","btsLatitude":22.2481667,"btsLongitude":90.3239722,"btsAltitudeFt":55.77428},
{"btsCode":"BRAMT04","btsName":"Taltoli 25m land","btsLatitude":21.971488,"btsLongitude":90.08144,"btsAltitudeFt":55.77428},
{"btsCode":"BRAMT05","btsName":"Amragachia_GP","btsLatitude":22.1799167,"btsLongitude":90.2706111,"btsAltitudeFt":55.77428},
{"btsCode":"BRAMT08","btsName":"Babuganj Bazar_GP","btsLatitude":22.002,"btsLongitude":90.028,"btsAltitudeFt":55.77428},
{"btsCode":"BRAMT09","btsName":"Talukder Bazar_32mLand","btsLatitude":22.1545278,"btsLongitude":90.2916944,"btsAltitudeFt":55.77428},
{"btsCode":"BRAMT11","btsName":"Barabagi Bazar_GP","btsLatitude":21.899528,"btsLongitude":90.034472,"btsAltitudeFt":55.77428},
{"btsCode":"BRAMT12","btsName":"Pancha Karalia_GP","btsLatitude":22.0865833,"btsLongitude":90.1488611,"btsAltitudeFt":55.77428},
{"btsCode":"BRAMT13","btsName":"Chandukhali Bazar_GP","btsLatitude":22.060055,"btsLongitude":90.1833611,"btsAltitudeFt":55.77428},
{"btsCode":"BRAMT14","btsName":"Sonakhali","btsLatitude":22.20233,"btsLongitude":90.34211,"btsAltitudeFt":55.77428},
{"btsCode":"BRAMT15","btsName":"Maheshkata Bazar_BL","btsLatitude":22.215,"btsLongitude":90.298,"btsAltitudeFt":55.77428},
{"btsCode":"BRAMT16","btsName":"Officer hat","btsLatitude":22.1025,"btsLongitude":90.30635,"btsAltitudeFt":55.77428},
{"btsCode":"BRAMT17","btsName":"Haldibari Bazar_Gulishkhali","btsLatitude":22.24286,"btsLongitude":90.24191,"btsAltitudeFt":55.77428},
{"btsCode":"BRAMT18","btsName":"Gojkhali_Gulisakhali","btsLatitude":22.21683,"btsLongitude":90.2711,"btsAltitudeFt":55.77428},
{"btsCode":"BRAMT19","btsName":"Kaurobaria Bazar_Reloc","btsLatitude":22.01994,"btsLongitude":90.15897,"btsAltitudeFt":55.77428},
{"btsCode":"BRAMT20","btsName":"Arpangashia_Amtoli_Reloc","btsLatitude":22.09457,"btsLongitude":90.20464,"btsAltitudeFt":55.77428},
{"btsCode":"BRBMN01","btsName":"Bamna","btsLatitude":22.3077511,"btsLongitude":90.0922298,"btsAltitudeFt":55.77428},
{"btsCode":"BRBMN02","btsName":"Bukabunia Bazar_GP","btsLatitude":22.3189444,"btsLongitude":90.0540833,"btsAltitudeFt":55.77428},
{"btsCode":"BRBMN03","btsName":"Dodi bhanga bazar_GP","btsLatitude":22.2951111,"btsLongitude":90.0305278,"btsAltitudeFt":55.77428},
{"btsCode":"BRBMN04","btsName":"Kholpatua Bazar_BL","btsLatitude":22.2657,"btsLongitude":90.07572,"btsAltitudeFt":55.77428},
{"btsCode":"BRBTG01","btsName":"Betagi__outdoor_GP","btsLatitude":22.4126389,"btsLongitude":90.1691111,"btsAltitudeFt":55.77428},
{"btsCode":"BRBTG02","btsName":"Neamoti 32m land","btsLatitude":22.4758889,"btsLongitude":90.1961389,"btsAltitudeFt":55.77428},
{"btsCode":"BRBTG03","btsName":"Kaunia_GP","btsLatitude":22.3143333,"btsLongitude":90.1381111,"btsAltitudeFt":55.77428},
{"btsCode":"BRBTG04","btsName":"Mokamia madrasha bazar_GP","btsLatitude":22.3709444,"btsLongitude":90.14725,"btsAltitudeFt":55.77428},
{"btsCode":"BRBTG06","btsName":"Jalisha Bazar_GP","btsLatitude":22.362611,"btsLongitude":90.175722,"btsAltitudeFt":55.77428},
{"btsCode":"BRPTG01","btsName":"Patharghata","btsLatitude":22.0432778,"btsLongitude":89.9710278,"btsAltitudeFt":55.77428},
{"btsCode":"BRPTG02","btsName":"Nachnapara","btsLatitude":22.1616111,"btsLongitude":89.9616111,"btsAltitudeFt":55.77428},
{"btsCode":"BRPTG03","btsName":"Hoglapasha 32m Land","btsLatitude":22.1021389,"btsLongitude":89.9526389,"btsAltitudeFt":55.77428},
{"btsCode":"BRPTG04","btsName":"Kakchira Bazar_32mLand","btsLatitude":22.1788056,"btsLongitude":90.0162222,"btsAltitudeFt":55.77428},
{"btsCode":"BRPTG05","btsName":"Kalmegha_GP","btsLatitude":22.10172,"btsLongitude":90.01119,"btsAltitudeFt":55.77428},
{"btsCode":"BRPTG06","btsName":"Rupdhan Bazar_32m_Land","btsLatitude":22.1339167,"btsLongitude":90.0131389,"btsAltitudeFt":55.77428},
{"btsCode":"BRPTG07","btsName":"Bara Tengra_Rohita_GP","btsLatitude":22.0718889,"btsLongitude":89.9012222,"btsAltitudeFt":55.77428},
{"btsCode":"BRPTG08","btsName":"Charduani_GP","btsLatitude":22.1176667,"btsLongitude":89.9285833,"btsAltitudeFt":55.77428},
{"btsCode":"BRPTG11","btsName":"Raihanpur 32m Land","btsLatitude":22.1848056,"btsLongitude":89.9898056,"btsAltitudeFt":55.77428},
{"btsCode":"BRPTG12","btsName":"Chhanbunia Baz","btsLatitude":22.07229,"btsLongitude":90.01339,"btsAltitudeFt":55.77428},
{"btsCode":"BRPTG13","btsName":"Singrabunia","btsLatitude":22.154965,"btsLongitude":90.04149,"btsAltitudeFt":55.77428},
{"btsCode":"BRPTG14","btsName":"Badurtala Bazar","btsLatitude":22.0121,"btsLongitude":89.96415,"btsAltitudeFt":55.77428},
{"btsCode":"BRPTG15","btsName":"Raihanpur_Betmor","btsLatitude":22.20806,"btsLongitude":89.96651,"btsAltitudeFt":55.77428},
{"btsCode":"BRPTG16","btsName":"Dakshin Jhan Para","btsLatitude":22.08657,"btsLongitude":89.94971,"btsAltitudeFt":55.77428},
{"btsCode":"CMBRR31","btsName":"Akbaria_GP","btsLatitude":23.3178611,"btsLongitude":91.0176667,"btsAltitudeFt":55.77428},
{"btsCode":"BRSDR01","btsName":"Barguna_Reloc","btsLatitude":22.16086,"btsLongitude":90.1242,"btsAltitudeFt":55.77428},
{"btsCode":"BRSDR01","btsName":"Barguna_Reloc","btsLatitude":22.16086,"btsLongitude":90.1242,"btsAltitudeFt":55.77428},
{"btsCode":"BRSDR02","btsName":"Barguna_2","btsLatitude":22.1573333,"btsLongitude":90.1123056,"btsAltitudeFt":55.77428},
{"btsCode":"BRSDR02","btsName":"Barguna_2","btsLatitude":22.1573333,"btsLongitude":90.1123056,"btsAltitudeFt":55.77428},
{"btsCode":"BRSDR03","btsName":"Gaurichanna Bazar","btsLatitude":22.2152222,"btsLongitude":90.1141667,"btsAltitudeFt":55.77428},
{"btsCode":"BRSDR04","btsName":"Parirkhal 25m land","btsLatitude":22.0395278,"btsLongitude":90.0543056,"btsAltitudeFt":55.77428},
{"btsCode":"BRSDR04","btsName":"Parirkhal 25m land","btsLatitude":22.0395278,"btsLongitude":90.0543056,"btsAltitudeFt":55.77428},
{"btsCode":"BRSDR05","btsName":"Kadamtola_GP","btsLatitude":22.1708889,"btsLongitude":90.1759722,"btsAltitudeFt":55.77428},
{"btsCode":"BRSDR05","btsName":"Kadamtola_GP","btsLatitude":22.1708889,"btsLongitude":90.1759722,"btsAltitudeFt":55.77428},
{"btsCode":"BRSDR09","btsName":"Chalitatoli Bazar_32mLand","btsLatitude":22.07475,"btsLongitude":90.0988889,"btsAltitudeFt":55.77428},
{"btsCode":"BRSDR10","btsName":"Potkakhali_GP","btsLatitude":22.1585556,"btsLongitude":90.0790556,"btsAltitudeFt":55.77428},
{"btsCode":"BRSDR12","btsName":"Lakurtola","btsLatitude":22.18732,"btsLongitude":90.12341,"btsAltitudeFt":55.77428},
{"btsCode":"BRSDR13","btsName":"Dhalua","btsLatitude":22.10055,"btsLongitude":90.06246,"btsAltitudeFt":55.77428},
{"btsCode":"BRSDR14","btsName":"Noli","btsLatitude":22.07223,"btsLongitude":90.03816,"btsAltitudeFt":55.77428},
{"btsCode":"BRSDR15","btsName":"Noltona","btsLatitude":22.03448,"btsLongitude":90.02249,"btsAltitudeFt":55.77428},
{"btsCode":"BRSDR17","btsName":"Barguna Bus stand","btsLatitude":22.15999,"btsLongitude":90.13503,"btsAltitudeFt":55.77428},
{"btsCode":"BRSDR18","btsName":"Barguna3","btsLatitude":22.15977,"btsLongitude":90.11747,"btsAltitudeFt":55.77428},
{"btsCode":"BRSDR19","btsName":"Barguna4","btsLatitude":22.15455,"btsLongitude":90.11775,"btsAltitudeFt":55.77428},
{"btsCode":"BRSDR20","btsName":"Fulzhuri Bazar_Reloc","btsLatitude":22.21481,"btsLongitude":90.07583,"btsAltitudeFt":55.77428},
{"btsCode":"BRSDR21","btsName":"Chandukhali Bazar_Reloc","btsLatitude":22.24903,"btsLongitude":90.15751,"btsAltitudeFt":55.77428},
{"btsCode":"BRSDR22","btsName":"Ayla_Reloc","btsLatitude":22.22361,"btsLongitude":90.20026,"btsAltitudeFt":55.77428},
{"btsCode":"BRSDR23","btsName":"Gotbaria_Reloc","btsLatitude":22.21029,"btsLongitude":90.16616,"btsAltitudeFt":55.77428},
{"btsCode":"BSAGL01","btsName":"Agailjhara","btsLatitude":22.9702191,"btsLongitude":90.1541452,"btsAltitudeFt":55.77428},
{"btsCode":"BSAGL01","btsName":"Agailjhara","btsLatitude":22.9702191,"btsLongitude":90.1541452,"btsAltitudeFt":55.77428},
{"btsCode":"BSAGL02","btsName":"Paiser_hat_land_42m","btsLatitude":22.9694444,"btsLongitude":90.08375,"btsAltitudeFt":55.77428},
{"btsCode":"BSAGL03","btsName":"Shaheber hat_GP","btsLatitude":22.9248889,"btsLongitude":90.1575278,"btsAltitudeFt":55.77428},
{"btsCode":"BSAGL04","btsName":"Bashail Bazar_GP","btsLatitude":23.01541,"btsLongitude":90.16307,"btsAltitudeFt":55.77428},
{"btsCode":"BSAGL05","btsName":"Coygram_GP","btsLatitude":22.9275278,"btsLongitude":90.2040833,"btsAltitudeFt":55.77428},
{"btsCode":"BSAGL08","btsName":"Bagda bazar_gp","btsLatitude":22.94242,"btsLongitude":90.07631,"btsAltitudeFt":55.77428},
{"btsCode":"BSAGL09","btsName":"Goila Bazar 32m Land","btsLatitude":22.964362,"btsLongitude":90.179056,"btsAltitudeFt":55.77428},
{"btsCode":"BSAGL10","btsName":"Bakal bazar","btsLatitude":22.98704,"btsLongitude":90.13134,"btsAltitudeFt":55.77428},
{"btsCode":"BSAGL11","btsName":"Jober paar","btsLatitude":22.96296,"btsLongitude":90.12273,"btsAltitudeFt":55.77428},
{"btsCode":"BSBBG01","btsName":"Babuganj_degree_College","btsLatitude":22.8181,"btsLongitude":90.3243653,"btsAltitudeFt":55.77428},
{"btsCode":"BSBBG01","btsName":"Babuganj_degree_College","btsLatitude":22.8181,"btsLongitude":90.3243653,"btsAltitudeFt":55.77428},
{"btsCode":"BSBKG18","btsName":"Bangla Bazar_Niamati","btsLatitude":22.50689,"btsLongitude":90.26392,"btsAltitudeFt":55.77428},
{"btsCode":"BSBBG02","btsName":"Barisal_Cadet_Coll","btsLatitude":22.7756944,"btsLongitude":90.3056111,"btsAltitudeFt":55.77428},
{"btsCode":"BSBBG02","btsName":"Barisal_Cadet_Coll","btsLatitude":22.7756944,"btsLongitude":90.3056111,"btsAltitudeFt":55.77428},
{"btsCode":"BSBBG03","btsName":"Baher Char_GP","btsLatitude":22.8498056,"btsLongitude":90.3069444,"btsAltitudeFt":55.77428},
{"btsCode":"BSBBG06","btsName":"Steemer Ghat_GP","btsLatitude":22.8690278,"btsLongitude":90.3225,"btsAltitudeFt":55.77428},
{"btsCode":"BSBBG07","btsName":"Tin Moth bazar_BL","btsLatitude":22.76269,"btsLongitude":90.27471,"btsAltitudeFt":55.77428},
{"btsCode":"BSBBG08","btsName":"Doarika","btsLatitude":22.82,"btsLongitude":90.29362,"btsAltitudeFt":55.77428},
{"btsCode":"BSBBG09","btsName":"Moidan Hat_Chandpasha","btsLatitude":22.79494,"btsLongitude":90.35045,"btsAltitudeFt":55.77428},
{"btsCode":"BSBBG10","btsName":"Selondia Bazar","btsLatitude":22.89802,"btsLongitude":90.33883,"btsAltitudeFt":55.77428},
{"btsCode":"BSBBG11","btsName":"Rampotti_Dehergati","btsLatitude":22.79227,"btsLongitude":90.28594,"btsAltitudeFt":55.77428},
{"btsCode":"BSBKG01","btsName":"Bakerganj","btsLatitude":22.5416764,"btsLongitude":90.3371651,"btsAltitudeFt":55.77428},
{"btsCode":"BSBKG01","btsName":"Bakerganj","btsLatitude":22.5416764,"btsLongitude":90.3371651,"btsAltitudeFt":55.77428},
{"btsCode":"BSBKG02","btsName":"Kalaskathi_reloc_Airtel","btsLatitude":22.524,"btsLongitude":90.3724,"btsAltitudeFt":55.77428},
{"btsCode":"BSBKG03","btsName":"Moheshpur Hospital","btsLatitude":22.4969167,"btsLongitude":90.2376944,"btsAltitudeFt":55.77428},
{"btsCode":"BSBKG04","btsName":"Padrishibpur","btsLatitude":22.5165833,"btsLongitude":90.3089167,"btsAltitudeFt":55.77428},
{"btsCode":"BSBKG05","btsName":"Lebukhali land 55m","btsLatitude":22.4974444,"btsLongitude":90.3429167,"btsAltitudeFt":55.77428},
{"btsCode":"BSBKG05","btsName":"Lebukhali land 55m","btsLatitude":22.4974444,"btsLongitude":90.3429167,"btsAltitudeFt":55.77428},
{"btsCode":"BSBKG06","btsName":"Charamaddi 32m land","btsLatitude":22.6369167,"btsLongitude":90.41675,"btsAltitudeFt":55.77428},
{"btsCode":"BSBKG07","btsName":"Boalia_GP","btsLatitude":22.5744167,"btsLongitude":90.3389444,"btsAltitudeFt":55.77428},
{"btsCode":"BSBKG08","btsName":"Gobindapur Bazar_GP","btsLatitude":22.56,"btsLongitude":90.5215,"btsAltitudeFt":55.77428},
{"btsCode":"BSBKG09","btsName":"Satraz Bazar_32m Land","btsLatitude":22.568444,"btsLongitude":90.433389,"btsAltitudeFt":55.77428},
{"btsCode":"BSBKG10","btsName":"Kabai_GP","btsLatitude":22.5168611,"btsLongitude":90.4329722,"btsAltitudeFt":55.77428},
{"btsCode":"BSBKG12","btsName":"Halta Bazar_GP","btsLatitude":22.60204,"btsLongitude":90.38606,"btsAltitudeFt":55.77428},
{"btsCode":"BSBKG13","btsName":"Kakorda Bazar_GP","btsLatitude":22.5609444,"btsLongitude":90.479,"btsAltitudeFt":55.77428},
{"btsCode":"BSBKG15","btsName":"Kamarkhali Bazar_GP","btsLatitude":22.621944,"btsLongitude":90.468861,"btsAltitudeFt":55.77428},
{"btsCode":"BSBKG16","btsName":"Chamta bazar_Niamati","btsLatitude":22.49411,"btsLongitude":90.20297,"btsAltitudeFt":55.77428},
{"btsCode":"BSBKG17","btsName":"Khairabad Bazar","btsLatitude":22.5705,"btsLongitude":90.36413,"btsAltitudeFt":55.77428},
{"btsCode":"BSBKG19","btsName":"Shukhi Nilgonj","btsLatitude":22.56591,"btsLongitude":90.39172,"btsAltitudeFt":55.77428},
{"btsCode":"BSBKG20","btsName":"Patab unia_Nalua_GP","btsLatitude":22.489333,"btsLongitude":90.40725,"btsAltitudeFt":55.77428},
{"btsCode":"BSBKG22","btsName":"Bhar Pasha_Barisal","btsLatitude":22.47483,"btsLongitude":90.29516,"btsAltitudeFt":55.77428},
{"btsCode":"BSBNP01","btsName":"Banaripara","btsLatitude":22.7847115,"btsLongitude":90.1564208,"btsAltitudeFt":55.77428},
{"btsCode":"BSBNP01","btsName":"Banaripara","btsLatitude":22.7847115,"btsLongitude":90.1564208,"btsAltitudeFt":55.77428},
{"btsCode":"BSBNP01","btsName":"Banaripara","btsLatitude":22.7847115,"btsLongitude":90.1564208,"btsAltitudeFt":55.77428},
{"btsCode":"BSBNP02","btsName":"Chakhar","btsLatitude":22.8073056,"btsLongitude":90.1925833,"btsAltitudeFt":55.77428},
{"btsCode":"BSBNP03","btsName":"Baishari bazar_32mLand","btsLatitude":22.7920833,"btsLongitude":90.1273611,"btsAltitudeFt":55.77428},
{"btsCode":"BSBNP03","btsName":"Baishari bazar_32mLand","btsLatitude":22.7920833,"btsLongitude":90.1273611,"btsAltitudeFt":55.77428},